code,value,areaName,cx,cy,region,own,mortgage,sharedOwn,laRent,socialRent,privateRent,otherRent,freeRent,urbanisation,total_housing,LONG,LAT,percentageType,percentageValue
E06000001,985.5,Hartlepool,448118,530661,E12000001,12761,11073,239,3986,5608,6338,856,68,Suburban,40929,-1.27018,54.67614,percentage_own,31.17838208
E06000002,2671.2,Middlesbrough,450380,516653,E12000001,17224,15913,330,6773,7233,11286,1391,115,Urban,60265,-1.21099,54.54467,percentage_own,28.58043641
E06000003,557.1,Redcar and Cleveland,463383,518023,E12000001,22649,17205,346,5269,6380,8410,1338,41,Suburban,61638,-1.00608,54.56752,percentage_own,36.74518966
E06000004,959.3,Stockton-on-Tees,443484,518785,E12000001,27726,27686,385,7204,6469,12388,1819,79,Suburban,83756,-1.30664,54.55687,percentage_own,33.10330006
E06000005,545.9,Darlington,429038,517147,E12000001,16222,14474,190,5112,2819,9035,1043,20,Suburban,48915,-1.56835,54.53534,percentage_own,33.16365123
E06000006,1624.3,Halton,352162,383230,E12000002,17096,16744,429,2898,10721,7088,930,45,Suburban,55951,-2.68853,53.33424,percentage_own,30.55530732
E06000011,142.4,East Riding of Yorkshire,499908,442365,E12000003,65680,45518,634,10874,3406,22171,3561,222,Rural,152066,-0.66195,53.88112,percentage_own,43.19177199
E06000012,815,North East Lincolnshire,523749,406881,E12000003,24373,20211,358,2729,6462,14185,1459,49,Suburban,69826,-0.13911,53.52327,percentage_own,34.90533612
E06000014,745.8,York,461737,451799,E12000003,31453,24182,719,7152,4772,15209,1875,96,Suburban,85458,-1.07376,53.96583,percentage_own,36.80521426
E06000015,3349.5,Derby,435851,335169,E12000004,33384,28985,790,11713,8138,20395,2058,188,Urban,105651,-1.47186,52.91464,percentage_own,31.59837578
E06000017,107.5,Rutland,491121,307844,E12000004,7286,4555,233,310,1509,2082,708,8,Rural,16691,-0.6263,52.66765,percentage_own,43.65226769
E06000018,4337.6,Nottingham,455451,340739,E12000004,27940,28375,609,22854,8942,33039,2649,335,Urban,124743,-1.16667,52.9542,percentage_own,22.39805039
E06000019,85.8,Herefordshire,349035,245285,E12000005,35070,19893,916,2657,8652,12943,2662,34,Rural,82827,-2.73931,52.08162,percentage_own,42.34126553
E06000020,639.1,Telford and Wrekin,367109,314837,E12000005,23088,22776,586,4966,8818,14694,1503,78,Suburban,76509,-2.48941,52.71417,percentage_own,30.17684194
E06000021,2764.8,Stoke-on-Trent,389018,346716,E12000005,33558,29095,404,16913,7656,20065,2335,374,Urban,110400,-2.15888,53.01706,percentage_own,30.39673913
E06000023,4308.1,Bristol,346546,172919,E12000009,48199,55221,1656,24977,10902,46271,3942,470,Urban,191638,-2.57742,51.47113,percentage_own,25.15106607
E06000024,579.9,North Somerset,344429,165882,E12000009,37250,30532,679,2003,6711,15541,1879,53,Suburban,94648,-2.75438,51.39706,percentage_own,39.35635196
E06000026,3314.8,Plymouth,249389,56735,E12000009,33783,32255,1349,7386,13725,22754,3167,138,Urban,114557,-4.11297,50.40494,percentage_own,29.49012282
E06000027,2215.6,Torbay,291417,61223,E12000009,24663,15699,622,561,4664,15195,1572,16,Suburban,62992,-3.55523,50.47092,percentage_own,39.15259081
E06000031,628.1,Peterborough,518343,302621,E12000006,22268,24624,1167,5009,10751,18675,1937,102,Suburban,84533,-0.26874,52.59214,percentage_own,26.34237517
E06000032,5196,Luton,508515,222915,E12000006,20296,22281,426,8498,4425,21280,1607,127,Urban,78940,-0.42319,51.89102,percentage_own,25.71066633
E06000035,1444.2,Medway,578769,172759,E12000008,34388,37734,1646,4553,10577,20219,2272,68,Suburban,111457,0.563174,51.44772,percentage_own,30.85315413
E06000036,1139.2,Bracknell Forest,487739,168395,E12000008,14488,19053,877,2507,5382,6957,945,36,Suburban,50245,-0.73364,51.41129,percentage_own,28.83470992
E06000037,229.3,West Berkshire,448409,172535,E12000008,23209,21828,878,787,8518,9668,1763,7,Rural,66658,-1.27365,51.44559,percentage_own,34.81802634
E06000038,4312.6,Reading,470639,173186,E12000008,15426,18707,883,6145,4779,20373,1250,120,Urban,67683,-0.99075,51.45301,percentage_own,22.79154293
E06000039,4871.5,Slough,498180,179746,E12000008,10215,15186,573,6304,3962,15101,994,88,Urban,52423,-0.57617,51.5035,percentage_own,19.48572192
E06000040,781.1,Windsor and Maidenhead,490435,177040,E12000008,20393,19913,392,705,6950,10635,1918,23,Suburban,60929,-0.67541,51.48034,percentage_own,33.47010455
E06000041,991.7,Wokingham,477672,170613,E12000008,24952,27647,1426,2844,2487,8665,1117,27,Suburban,69165,-0.89935,51.42296,percentage_own,36.07605003
E06000042,930.1,Milton Keynes,486881,243629,E12000008,27193,34752,6905,11029,9419,21780,1876,149,Suburban,113103,-0.7407,52.07241,percentage_own,24.04268675
E06000043,3345.3,Brighton and Hove,531606,106526,E12000008,30444,31973,997,11587,6464,37167,2517,253,Urban,121402,-0.15081,50.8465,percentage_own,25.07701685
E06000044,5149.8,Portsmouth,465010,102752,E12000008,21958,23066,769,9394,6113,22196,2473,186,Urban,86155,-1.07006,50.808,percentage_own,25.48662295
E06000045,4990.5,Southampton,442376,113232,E12000008,23049,25789,1061,14958,7439,28063,1797,134,Urban,102290,-1.39952,50.9212,percentage_own,22.53299443
E06000047,234.5,County Durham,410446,533389,E12000001,81046,65775,692,21999,24859,35156,5042,195,Rural,234764,-1.84047,54.68513,percentage_own,34.52232881
E06000050,388.2,Cheshire West and Chester,350919,367257,E12000002,57620,48336,1945,9412,13298,21291,3093,159,Rural,155154,-2.70298,53.16336,percentage_own,37.13729585
E06000051,101.2,Shropshire,350424,304422,E12000005,59262,36522,1170,5616,12553,20425,3942,89,Rural,139579,-2.73667,52.62209,percentage_own,42.4576763
E06000053,125.9,Isles of Scilly,91546,11139,E12000009,640,196,28,206,118,448,240,2,Rural,1878,-6.30217,49.92332,percentage_own,34.07880724
E06000054,156.8,Wiltshire,403934,155301,E12000009,80220,63547,2546,7845,23383,27674,9748,118,Rural,215081,-1.92655,51.32882,percentage_own,37.29757626
E06000055,388.8,Bedford,504237,255656,E12000006,23359,23605,1427,1782,10418,12905,1411,42,Rural,74949,-0.45463,52.19628,percentage_own,31.16652657
E06000056,411.2,Central Bedfordshire,507413,235392,E12000006,40618,45305,2112,5620,10457,14329,2238,75,Rural,120754,-0.47754,51.99903,percentage_own,33.63698097
E06000057,63.9,Northumberland,395886,594161,E12000001,56684,39104,801,13597,12488,20149,3979,120,Rural,146922,-2.07523,55.30038,percentage_own,38.58101578
E06000058,2469.2,Bournemouth Christchurch and Poole,408362,94131,E12000009,59736,49485,1226,8864,10238,40460,3692,141,Suburban,173842,-1.84807,50.74609,percentage_own,34.36223697
E06000059,152.4,Dorset,376581,100771,E12000009,77561,41593,1620,2263,18573,22778,4834,39,Rural,169261,-2.41459,50.79698,percentage_own,45.82331429
E06000060,353.4,Buckinghamshire,482081,210241,E12000008,77213,77026,2813,5766,22769,29769,4861,110,Rural,220327,-0.80573,51.76967,percentage_own,35.04472897
E06000061,364.4,North Northamptonshire,493494,281667,E12000004,47617,49245,1760,10410,12261,24645,2810,170,Rural,148918,-0.62504,52.42547,percentage_own,31.97531527
E06000062,309.1,West Northamptonshire,465908,258722,E12000004,53782,58173,2647,12035,12776,29463,3537,226,Rural,172639,-1.01682,52.26898,percentage_own,31.15286812
E07000008,3579.2,Cambridge,545770,257755,E12000006,12897,10234,872,6910,4980,14735,1760,86,Urban,52474,0.126436,52.20017,percentage_own,24.57788619
E07000009,134.8,East Cambridgeshire,556466,274112,E12000006,13485,11822,565,684,4516,5103,1017,10,Rural,37202,0.283149,52.35788,percentage_own,36.24805118
E07000010,187.5,Fenland,539807,298084,E12000006,16632,12820,236,1174,4407,7788,1007,19,Rural,44083,0.008927,52.53545,percentage_own,37.72882971
E07000012,179.8,South Cambridgeshire,542444,254795,E12000006,24426,21736,1677,5397,4299,8055,1328,78,Rural,66996,0.091017,52.10805,percentage_own,36.45889307
E07000026,77.4,Allerdale,319765,535836,E12000002,18770,11276,241,1096,7217,4241,1122,10,Rural,43973,,,percentage_own,42.68528415
E07000027,865.3,Barrow-in-Furness,320831,470657,E12000002,12250,10211,54,2388,1063,4588,671,34,Suburban,31259,,,percentage_own,39.18871365
E07000028,106,Carlisle,348339,564335,E12000002,19427,14620,419,1402,5870,7687,1213,25,Rural,50663,,,percentage_own,38.34553816
E07000029,91.7,Copeland,310947,502927,E12000002,12988,8849,98,1635,3794,2726,673,25,Rural,30788,,,percentage_own,42.18526699
E07000030,25.5,Eden,359952,524354,E12000002,11661,5702,256,399,2143,3522,930,0,Rural,24613,,,percentage_own,47.37740219
E07000031,68,South Lakeland,344716,488871,E12000002,22394,11873,276,2201,2911,6525,1449,28,Rural,47657,,,percentage_own,46.98994901
E07000032,475.6,Amber Valley,435845,348157,E12000004,23051,17474,297,2302,4867,7174,1061,51,Rural,56277,-1.46219,53.02884,percentage_own,40.95989481
E07000033,500.7,Bolsover,448358,368917,E12000004,12391,10873,117,4647,1115,5373,683,63,Suburban,35262,-1.27228,53.23874,percentage_own,35.13981056
E07000034,1568.4,Chesterfield,440052,373318,E12000004,17249,12824,158,8428,1539,6882,899,79,Suburban,48058,-1.40115,53.25574,percentage_own,35.89204711
E07000035,90.3,Derbyshire Dales,420549,359062,E12000004,15405,7824,319,942,3133,3731,919,10,Rural,32283,-1.70708,53.12327,percentage_own,47.71861351
E07000036,1029.9,Erewash,443979,337734,E12000004,18887,16285,265,1775,4623,7518,952,31,Suburban,50336,-1.35089,52.93819,percentage_own,37.52185315
E07000037,168.7,High Peak,408491,386271,E12000004,16367,12562,284,3610,1347,5633,912,57,Rural,40772,-1.844,53.38563,percentage_own,40.14274502
E07000038,370.1,North East Derbyshire,436969,370027,E12000004,18959,13467,270,7020,1577,3841,767,86,Rural,45987,-1.44253,53.16243,percentage_own,41.22686846
E07000041,2780,Exeter,293498,92447,E12000009,16369,13703,583,4640,4087,12024,1083,65,Urban,52554,-3.51368,50.71782,percentage_own,31.14701069
E07000042,90.8,Mid Devon,290588,109637,E12000009,14110,9988,365,2830,1674,5704,908,52,Rural,35631,-3.5921,50.86884,percentage_own,39.60034801
E07000043,90.8,North Devon,265967,131782,E12000009,18055,11025,477,1110,3701,7364,1449,17,Rural,43198,-3.92688,51.07621,percentage_own,41.79591648
E07000045,200.1,Teignbridge,282849,79821,E12000009,25889,16770,775,1324,4370,9357,1326,26,Rural,59837,-3.65289,50.60981,percentage_own,43.26587229
E07000046,69.2,Torridge,241935,112003,E12000009,13870,7316,265,467,2380,5157,995,8,Rural,30458,-4.21728,50.90739,percentage_own,45.53811806
E07000047,49.2,West Devon,255465,86000,E12000009,11569,6043,176,495,2000,3830,696,9,Rural,24818,-4.03358,50.66482,percentage_own,46.61535982
E07000061,2302.6,Eastbourne,559822,99749,E12000008,16305,10924,270,3223,2717,11117,1001,53,Suburban,45610,0.258516,50.77387,percentage_own,35.74873931
E07000062,3053.9,Hastings,580952,110924,E12000008,12644,10243,203,918,4853,10642,930,18,Urban,40451,0.578395,50.86724,percentage_own,31.25757089
E07000063,342,Lewes,541167,111026,E12000008,18524,12549,410,3162,1612,6524,860,47,Rural,43688,0.007658,50.83342,percentage_own,42.40065922
E07000067,253.8,Braintree,578133,230213,E12000006,22262,21828,475,2187,8406,8573,1222,30,Rural,64983,0.575912,51.91635,percentage_own,34.2581906
E07000068,503.2,Brentwood,559999,195829,E12000006,11797,11461,214,2649,1011,4589,574,48,Suburban,32343,0.290091,51.64108,percentage_own,36.47466221
E07000069,2005.4,Castle Point,579982,185122,E12000006,16937,13000,135,1423,628,4585,655,26,Suburban,37389,0.588127,51.56159,percentage_own,45.29941962
E07000070,535.9,Chelmsford,571456,205876,E12000006,27057,25691,879,1619,8398,10479,1245,33,Suburban,75401,0.491177,51.73503,percentage_own,35.88413947
E07000071,587.2,Colchester,597077,223202,E12000006,26126,25352,419,5645,4940,15003,2162,64,Suburban,79711,0.85982,51.87701,percentage_own,32.77590295
E07000072,398.2,Epping Forest,548522,203300,E12000006,19180,18807,353,6215,1778,7082,1065,79,Rural,54559,0.154146,51.71278,percentage_own,35.15460327
E07000074,185,Maldon,592438,204831,E12000006,12224,9034,227,266,2866,2670,609,4,Rural,27900,0.773106,51.77458,percentage_own,43.81362007
E07000076,440.9,Tendring,614571,223776,E12000006,31510,16704,315,2702,2804,11829,1541,47,Rural,67452,1.108981,51.85674,percentage_own,46.71470082
E07000079,78,Cotswold,407474,213072,E12000009,16177,10260,869,675,5557,5592,1457,10,Rural,40597,-1.97058,51.77255,percentage_own,39.847772
E07000080,165.4,Forest of Dean,366318,214546,E12000009,16466,10552,319,832,4004,4072,959,13,Rural,37217,-2.47755,51.81249,percentage_own,44.24322218
E07000082,263,Stroud,379361,203473,E12000009,21548,16532,631,4521,1909,6125,1028,84,Rural,52378,-2.30818,51.72001,percentage_own,41.13940968
E07000084,292.1,Basingstoke and Deane,455819,153006,E12000008,23475,26170,1475,765,12946,10412,1388,14,Rural,76645,-1.22023,51.25937,percentage_own,30.62822102
E07000085,244.4,East Hampshire,473316,131076,E12000008,21080,17391,756,920,5687,5692,1184,9,Rural,52719,-0.93965,51.05774,percentage_own,39.98558395
E07000086,1712.1,Eastleigh,447331,115065,E12000008,20012,20379,1160,673,6757,7081,855,7,Suburban,56924,-1.32947,50.94876,percentage_own,35.15564612
E07000087,1542.1,Fareham,454571,106165,E12000008,21154,17037,342,2237,1722,4990,1116,41,Suburban,48639,-1.23742,50.85388,percentage_own,43.49184811
E07000088,3229.8,Gosport,459361,100995,E12000008,12314,10535,434,2998,2864,5481,1233,61,Urban,35920,-1.16731,50.80636,percentage_own,34.28173719
E07000089,461.8,Hart,476958,154529,E12000008,14958,15304,742,370,3144,4428,1014,5,Rural,39965,-0.88321,51.28198,percentage_own,37.42774928
E07000091,233.7,New Forest,426464,106633,E12000008,36150,21371,504,4976,3391,9259,1865,51,Rural,77567,-1.59293,50.85751,percentage_own,46.60487063
E07000092,2554.9,Rushmoor,486069,153516,E12000008,9979,13795,679,945,5424,6510,1939,32,Urban,39303,-0.76807,51.27815,percentage_own,25.38991934
E07000093,207.9,Test Valley,434314,136669,E12000008,19742,17974,1049,1935,5907,6356,1714,29,Rural,54706,-1.50214,51.13417,percentage_own,36.08744927
E07000094,192.8,Winchester,454712,125708,E12000008,18648,15270,702,4950,2987,7489,1607,59,Rural,51712,-1.24393,51.03002,percentage_own,36.06126238
E07000095,1924.9,Broxbourne,534904,204646,E12000006,13178,14179,420,1400,4283,5783,584,23,Suburban,39850,-0.05073,51.7208,percentage_own,33.06900878
E07000096,729.8,Dacorum,500758,209858,E12000006,19598,20937,394,9863,3457,8214,879,70,Suburban,63412,-0.55098,51.76845,percentage_own,30.90582224
E07000098,1065.9,Hertsmere,518976,199022,E12000006,13227,14172,488,873,6528,6544,826,24,Suburban,42682,-0.26899,51.68017,percentage_own,30.98964435
E07000099,354.9,North Hertfordshire,524291,230523,E12000006,18933,17828,642,3476,7118,7756,966,14,Rural,56733,-0.22316,51.95732,percentage_own,33.37211147
E07000102,1055.8,Three Rivers,506561,196949,E12000006,12806,13334,276,1518,3949,4296,660,18,Suburban,36857,-0.45005,51.65632,percentage_own,34.74509591
E07000106,509.9,Canterbury,616375,158359,E12000008,24477,16836,586,5006,2794,12522,1502,69,Suburban,63792,1.096328,51.28102,percentage_own,38.37001505
E07000107,1605.3,Dartford,556785,172676,E12000008,12302,17694,1042,4274,2040,7617,658,67,Suburban,45694,0.245276,51.43373,percentage_own,26.92257189
E07000108,369.2,Dover,629815,151044,E12000008,19753,13725,387,4196,2843,8379,1216,53,Rural,50552,1.276887,51.21176,percentage_own,39.07461624
E07000109,1079.9,Gravesham,566746,170115,E12000008,13018,12942,443,5308,1962,7276,674,101,Suburban,41724,0.398744,51.39649,percentage_own,31.20026843
E07000110,446.9,Maidstone,580248,151563,E12000008,24192,23799,1350,1887,7620,10725,1614,21,Rural,71208,0.584061,51.23566,percentage_own,33.97371082
E07000111,326.4,Sevenoaks,551567,155211,E12000008,18769,16297,913,996,5469,5572,976,22,Rural,49014,0.188936,51.27563,percentage_own,38.29314074
E07000113,406.2,Swale,595988,164044,E12000008,20788,19727,820,1325,6716,9851,1251,17,Rural,60495,0.776893,51.32251,percentage_own,34.36317051
E07000114,1356.9,Thanet,632674,166985,E12000008,22731,15431,282,2940,4456,14755,1579,26,Suburban,62200,1.328226,51.35252,percentage_own,36.54501608
E07000115,550.6,Tonbridge and Malling,564511,155282,E12000008,18379,19126,1108,1001,7254,5757,937,9,Suburban,53571,0.349305,51.26063,percentage_own,34.30774113
E07000116,348,Tunbridge Wells,570254,137789,E12000008,16324,15069,521,946,6083,8297,971,13,Rural,48224,0.471631,51.10253,percentage_own,33.85036496
E07000117,855,Burnley,385506,431414,E12000002,13051,10785,91,1747,4462,8621,1075,39,Suburban,39871,-2.2308,53.77404,percentage_own,32.73306413
E07000118,580.6,Chorley,357265,418497,E12000002,18558,17598,358,1218,5419,6056,908,20,Suburban,50135,-2.61923,53.67238,percentage_own,37.01605665
E07000121,252.1,Lancaster,353328,463919,E12000002,23152,17114,488,3384,2769,11460,1569,42,Rural,59978,-2.6603,54.07901,percentage_own,38.6008203
E07000122,565.4,Pendle,387886,441045,E12000002,14127,10599,77,1421,3070,7622,1119,31,Suburban,38066,-2.18956,53.88636,percentage_own,37.11185835
E07000123,1039,Preston,354185,435253,E12000002,18219,16524,511,1882,9101,11923,1410,37,Suburban,59607,-2.71804,53.82201,percentage_own,30.56520207
E07000125,513.4,Rossendale,382473,421988,E12000002,10560,10190,72,1186,3328,4459,748,18,Suburban,30561,-2.26149,53.68476,percentage_own,34.55384313
E07000126,981.4,South Ribble,353203,425975,E12000002,19428,17519,376,496,4543,5339,878,6,Suburban,48585,-2.72871,53.72676,percentage_own,39.98765051
E07000127,338.8,West Lancashire,341717,412911,E12000002,18987,15337,443,5517,1441,5754,968,87,Rural,48534,-2.869,53.61284,percentage_own,39.12102856
E07000128,396.7,Wyre,344008,445536,E12000002,22699,14539,407,544,3327,8064,1177,12,Rural,50769,-2.8036,53.89991,percentage_own,44.71035474
E07000129,788.9,Blaby,452852,297375,E12000004,17012,16150,459,482,3015,4761,688,8,Suburban,42575,-1.19887,52.57706,percentage_own,39.95772167
E07000130,659.2,Charnwood,457739,315833,E12000004,27619,23916,738,4921,3711,11541,1273,66,Suburban,73785,-1.13694,52.7399,percentage_own,37.43172732
E07000131,165,Harborough,467383,293977,E12000004,16484,14148,805,405,3126,4687,752,7,Rural,40414,-0.90228,52.53764,percentage_own,40.7878458
E07000132,382.2,Hinckley and Bosworth,441354,302271,E12000004,19715,17074,451,3005,2044,6199,915,42,Rural,49445,-1.41755,52.60877,percentage_own,39.8725857
E07000133,107.5,Melton,477226,322729,E12000004,9160,6871,249,1641,775,3382,499,22,Rural,22599,-0.8544,52.80326,percentage_own,40.53276694
E07000134,374.8,North West Leicestershire,440239,317453,E12000004,16599,15690,479,4066,2023,5385,689,43,Rural,44974,-1.42215,52.74251,percentage_own,36.90799128
E07000135,2454.9,Oadby and Wigston,461524,299185,E12000004,9711,7304,160,1116,677,3248,375,25,Suburban,22616,-1.093,52.58875,percentage_own,42.93862752
E07000137,80.5,East Lindsey,535540,374440,E12000004,29907,13738,686,1495,5800,10971,2139,18,Rural,64754,0.020516,53.26446,percentage_own,46.18556383
E07000138,2908.9,Lincoln,496573,370718,E12000004,11092,10374,387,7162,1791,10634,924,142,Urban,42506,-0.55848,53.21921,percentage_own,26.09513951
E07000139,128,North Kesteven,504210,354897,E12000004,20386,16724,536,3685,1428,6299,1865,66,Rural,50989,-0.47664,53.08059,percentage_own,39.98117241
E07000140,126.8,South Holland,532780,324067,E12000004,16604,11717,436,3693,1243,6055,888,67,Rural,40703,-0.03057,52.78759,percentage_own,40.79306194
E07000141,152.1,South Kesteven,499893,329594,E12000004,23765,19155,654,5536,2315,9998,1327,97,Rural,62847,-0.49568,52.84885,percentage_own,37.81405636
E07000143,108.4,Breckland,592273,302678,E12000006,24126,16335,433,1653,6854,9186,1744,27,Rural,60358,0.818717,52.59422,percentage_own,39.97150336
E07000144,238.6,Broadland,623735,316663,E12000006,26448,18088,498,650,4969,5951,1144,12,Rural,57760,1.252273,52.69622,percentage_own,45.78947368
E07000145,572.2,Great Yarmouth,647815,311075,E12000006,16978,10538,133,5464,1749,8504,1072,107,Suburban,44545,1.64951,52.68439,percentage_own,38.11426647
E07000146,107.2,Kings Lynn and West Norfolk,566910,317216,E12000006,28053,17150,323,2167,7013,10482,2222,54,Rural,67464,0.533245,52.71285,percentage_own,41.58217716
E07000148,3688.2,Norwich,622020,308886,E12000006,14312,12793,367,14240,5278,15986,1365,116,Urban,64457,1.284979,52.64013,percentage_own,22.20394992
E07000149,156.4,South Norfolk,622377,295780,E12000006,25720,19175,756,1411,5773,7213,1314,19,Rural,61381,1.373247,52.51217,percentage_own,41.9022173
E07000163,48.4,Craven,388715,464893,E12000003,11826,6837,184,457,2037,3963,755,10,Rural,26069,,,percentage_own,45.36422571
E07000164,69.2,Hambleton,444420,488149,E12000003,17772,10373,355,575,4893,5245,1581,6,Rural,40800,,,percentage_own,43.55882353
E07000165,124.4,Harrogate,426573,463534,E12000003,28936,20971,647,3740,3282,11484,2038,71,Rural,71169,,,percentage_own,40.65815172
E07000166,37.7,Richmondshire,404370,496225,E12000003,8518,4974,119,1450,991,3142,1724,28,Rural,20946,,,percentage_own,40.6664757
E07000167,36.3,Ryedale,475009,480011,E12000003,10820,5686,190,331,2840,3958,883,7,Rural,24715,,,percentage_own,43.77908153
E07000169,153.5,Selby,457071,432688,E12000003,14590,14325,447,2923,1928,4571,739,39,Rural,39562,,,percentage_own,36.87882311
E07000170,1152.8,Ashfield,449768,355201,E12000004,19484,17266,221,6135,1995,8261,1036,111,Suburban,54509,-1.25422,53.09747,percentage_own,35.74455594
E07000171,184.7,Bassetlaw,469431,382275,E12000004,19442,15672,217,6124,1573,7210,1141,79,Rural,51458,-0.9787,53.35604,percentage_own,37.78226903
E07000172,1385,Broxtowe,449657,342283,E12000004,19301,15153,151,4029,1308,7409,946,65,Suburban,48362,-1.25944,52.97208,percentage_own,39.90943303
E07000173,977.4,Gedling,459166,348277,E12000004,20649,17417,270,2084,2911,7136,1055,29,Suburban,51551,-1.11907,53.02434,percentage_own,40.05547904
E07000175,188.8,Newark and Sherwood,472378,359080,E12000004,20525,16268,437,5133,2280,7476,1148,65,Rural,53332,-0.94643,53.1096,percentage_own,38.48533713
E07000176,291,Rushcliffe,464834,334124,E12000004,20508,17253,524,886,3387,6450,862,13,Rural,49883,-1.01097,52.9124,percentage_own,41.11220255
E07000177,273.5,Cherwell,449860,229130,E12000008,21431,21408,1253,1427,7315,11453,1580,26,Rural,65893,-1.28506,51.88718,percentage_own,32.52394033
E07000178,3553,Oxford,452441,206500,E12000008,13993,11042,793,7414,4140,16150,1612,95,Urban,55239,-1.24405,51.75357,percentage_own,25.33174026
E07000179,219.7,South Oxfordshire,464397,193175,E12000008,23180,20015,1116,1092,6294,7921,1863,17,Rural,61498,-1.07847,51.62288,percentage_own,37.69228268
E07000180,240.5,Vale of White Horse,438787,192976,E12000008,20812,18398,1055,1260,6946,7003,1999,24,Rural,57497,-1.48537,51.65444,percentage_own,36.19667113
E07000181,159.9,West Oxfordshire,434067,215553,E12000008,17963,14082,995,788,5575,6580,1990,8,Rural,47981,-1.50292,51.83991,percentage_own,37.43773577
E07000187,157,Mendip,362056,144991,E12000009,20657,13884,605,1149,4902,7770,1307,20,Rural,50294,,,percentage_own,41.07249374
E07000188,222.2,Sedgemoor,333465,143276,E12000009,21144,15677,493,3618,3269,8494,1157,52,Rural,53904,,,percentage_own,39.2252894
E07000189,180,South Somerset,350246,121192,E12000009,31355,20226,840,2166,8567,10552,2182,48,Rural,75936,,,percentage_own,41.29135061
E07000192,1274.3,Cannock Chase,401418,312745,E12000005,14718,14438,297,4894,2137,6109,753,110,Suburban,43456,-1.98277,52.70166,percentage_own,33.8687408
E07000193,320.5,East Staffordshire,412763,329519,E12000005,18695,15583,357,2276,4358,8846,1146,32,Rural,51293,-1.81441,52.83652,percentage_own,36.44746847
E07000194,321.3,Lichfield,413297,310036,E12000005,18902,14528,445,738,5194,4926,891,8,Rural,45632,-1.76059,52.69615,percentage_own,41.42268583
E07000195,584.5,Newcastle-under-Lyme,378749,344081,E12000005,20435,15716,350,2774,6368,6613,1122,45,Suburban,53423,-2.32628,53.00347,percentage_own,38.25131498
E07000196,271.2,South Staffordshire,388140,303026,E12000005,20310,14049,402,625,5846,4126,747,16,Rural,46121,-2.15496,52.69691,percentage_own,44.03633919
E07000197,228.8,Stafford,388230,327866,E12000005,23474,18558,500,2042,6104,7788,1548,33,Rural,60047,-2.16477,52.84791,percentage_own,39.09271071
E07000199,2549.6,Tamworth,421984,303220,E12000005,10967,11070,233,4104,1822,4192,451,56,Urban,32895,-1.68455,52.62028,percentage_own,33.33941328
E07000200,155.5,Babergh,599986,243163,E12000006,17460,11098,289,3370,1963,4910,1049,61,Rural,40200,0.916149,52.0645,percentage_own,43.43283582
E07000203,117.9,Mid Suffolk,611211,265459,E12000006,19151,13607,446,3141,1870,4874,1205,50,Rural,44344,1.096951,52.21856,percentage_own,43.18735342
E07000207,1459.6,Elmbridge,512060,163238,E12000008,18809,20832,586,939,4669,8828,897,27,Suburban,55587,-0.3944,51.36095,percentage_own,33.83704823
E07000208,2375.4,Epsom and Ewell,521188,161461,E12000008,11364,11803,358,193,2550,4561,487,5,Suburban,31321,-0.26172,51.33946,percentage_own,36.28236646
E07000209,530.2,Guildford,500446,150851,E12000008,19267,17717,729,4864,2202,9552,1378,51,Suburban,55760,-0.56257,51.25366,percentage_own,34.55344333
E07000210,338.3,Mole Valley,517049,147214,E12000008,15136,12053,380,574,3753,4506,732,5,Rural,37139,-0.30603,51.22749,percentage_own,40.75500148
E07000211,1168.1,Reigate and Banstead,526286,152009,E12000008,20196,22374,969,1082,5825,8482,905,16,Suburban,59849,-0.19871,51.25846,percentage_own,33.74492473
E07000212,1128.6,Runnymede,501617,167042,E12000008,11431,11710,506,2771,1728,5907,745,40,Suburban,34838,-0.53855,51.39274,percentage_own,32.81187209
E07000213,2293.9,Spelthorne,506652,170605,E12000008,13980,14489,531,771,4525,6783,704,21,Suburban,41804,-0.46254,51.41552,percentage_own,33.44177591
E07000215,354.1,Tandridge,536712,149345,E12000008,13326,13203,412,2496,1443,3973,757,13,Rural,35623,-0.04809,51.23584,percentage_own,37.40841591
E07000216,371.5,Waverley,495682,139877,E12000008,20039,17598,642,4657,1770,6494,1209,39,Rural,52448,-0.62343,51.15686,percentage_own,38.2073673
E07000217,1634.4,Woking,500423,158249,E12000008,13251,14280,338,2965,1827,7966,772,39,Suburban,41438,-0.57981,51.30839,percentage_own,31.97789469
E07000218,228.8,North Warwickshire,425346,294421,E12000005,10558,8856,261,2490,1262,3588,522,44,Rural,27581,-1.6242,52.56486,percentage_own,38.27997535
E07000219,1699.7,Nuneaton and Bedworth,435701,289373,E12000005,19829,18675,461,5412,2745,8355,1044,64,Suburban,56585,-1.47964,52.50094,percentage_own,35.04285588
E07000220,325.7,Rugby,445826,276476,E12000005,15703,16012,692,3399,2675,7460,1014,60,Rural,47015,-1.31828,52.38228,percentage_own,33.39997873
E07000221,137.8,Stratford-on-Avon,425910,253437,E12000005,24156,17967,1060,958,6948,7055,1308,11,Rural,59463,-1.63565,52.16155,percentage_own,40.62358105
E07000222,524.8,Warwick,428512,268090,E12000005,21411,19541,899,5251,3553,10844,1066,53,Suburban,62618,-1.58369,52.30142,percentage_own,34.19304353
E07000223,1534.4,Adur,519857,106296,E12000008,11101,8835,184,2431,1005,3537,558,27,Suburban,27678,-0.32417,50.84572,percentage_own,40.10766674
E07000224,746.1,Arun,500922,105536,E12000008,32182,19588,836,3210,3564,11801,1424,56,Suburban,72661,-0.64999,50.84321,percentage_own,44.29060982
E07000225,157.8,Chichester,488437,116059,E12000008,22715,12657,754,1057,7100,8089,1718,28,Rural,54118,-0.7163,50.94177,percentage_own,41.97309583
E07000226,2634.9,Crawley,527313,137822,E12000008,10940,14423,560,7969,2463,8352,663,132,Urban,45502,-0.19533,51.12357,percentage_own,24.04289921
E07000227,276.8,Horsham,514696,122819,E12000008,24482,20583,1072,775,6380,7795,1260,23,Rural,62370,-0.38126,51.00272,percentage_own,39.25284592
E07000228,456.8,Mid Sussex,531427,126224,E12000008,23259,22754,810,460,6352,8568,1142,4,Rural,63349,-0.10275,51.05954,percentage_own,36.71565455
E07000229,3423.7,Worthing,513043,104470,E12000008,18052,15388,322,1051,3794,10012,904,15,Urban,49538,-0.40127,50.8331,percentage_own,36.44071218
E07000234,457.1,Bromsgrove,398961,273791,E12000005,17483,14511,458,1452,2965,3719,660,16,Rural,41264,-2.00376,52.36169,percentage_own,42.36865064
E07000235,137.7,Malvern Hills,376452,253907,E12000005,15753,9020,451,753,4248,3896,757,11,Rural,34889,-2.33092,52.16759,percentage_own,45.15176703
E07000236,1604.4,Redditch,403427,264902,E12000005,11254,12184,291,5281,2050,4718,525,75,Suburban,36378,-1.9471,52.28541,percentage_own,30.93628017
E07000237,3121.4,Worcester,385680,255359,E12000005,14320,13142,472,2155,5114,8593,901,27,Urban,44724,-2.20997,52.19477,percentage_own,32.01860299
E07000238,199.7,Wychavon,396608,251844,E12000005,23188,16997,708,1478,7476,6337,1156,16,Rural,57356,-2.01614,52.12886,percentage_own,40.4282028
E07000239,520,Wyre Forest,381336,275771,E12000005,18477,12681,464,2946,3465,6366,873,48,Suburban,45320,-2.23494,52.3853,percentage_own,40.77007944
E07000240,919.3,St Albans,514441,209482,E12000006,20615,21237,297,4620,2567,8703,899,52,Suburban,58990,-0.3407,51.77356,percentage_own,34.94660112
E07000241,925,Welwyn Hatfield,524698,209206,E12000006,12711,13465,647,8354,3360,6954,632,86,Suburban,46209,-0.18518,51.76087,percentage_own,27.50762838
E07000242,315.7,East Hertfordshire,537205,220364,E12000006,21140,21870,915,1041,7070,8910,1057,20,Rural,62023,0.002739,51.86485,percentage_own,34.08413008
E07000243,3444.8,Stevenage,524559,224521,E12000006,9522,11282,618,7457,2137,4996,474,26,Urban,36512,-0.18987,51.90539,percentage_own,26.07909728
E07000244,195.1,East Suffolk,636456,265500,E12000006,49014,27266,443,5093,9384,16953,2532,64,Rural,110749,1.456187,52.244,percentage_own,44.25683302
E07000245,173.9,West Suffolk,578957,267629,E12000006,26398,20991,942,3962,8773,15003,2626,52,Rural,78747,0.652723,52.3084,percentage_own,33.52254689
E07000246,132.6,Somerset West and Taunton,304672,132836,E12000009,27731,18028,655,5568,5047,11118,1751,88,Rural,69986,,,percentage_own,39.62363901
E08000002,1948.6,Bury,379434,410155,E12000002,27752,26240,292,6718,5326,12628,1621,119,Suburban,80696,-2.3088,53.59309,percentage_own,34.39080004
E08000003,4772.7,Manchester,384645,394923,E12000002,35423,44502,1679,24419,38857,65041,4362,447,Urban,214730,-2.23359,53.47009,percentage_own,16.49653053
E08000004,1700.5,Oldham,396668,406152,E12000002,29384,26845,412,7572,12188,14253,2245,241,Suburban,93140,-2.05274,53.55768,percentage_own,31.548207
E08000005,1415.6,Rochdale,389646,413331,E12000002,27411,26966,342,9972,8843,14535,1968,185,Suburban,90222,-2.14784,53.60741,percentage_own,30.38172508
E08000006,2777.2,Salford,375503,399266,E12000002,25294,28774,646,13599,15628,28651,2202,323,Urban,115117,-2.38485,53.47927,percentage_own,21.97242805
E08000007,2338.3,Stockport,391577,388561,E12000002,46498,43527,1486,9880,6969,16238,1954,96,Suburban,126648,-2.12465,53.39111,percentage_own,36.71435791
E08000008,2239.7,Tameside,395938,397900,E12000002,30363,30158,320,5556,15569,15489,1970,102,Suburban,99527,-2.077,53.47867,percentage_own,30.50729953
E08000009,2216.7,Trafford,376532,391465,E12000002,33149,33238,654,4065,10354,13254,1490,65,Suburban,96269,-2.36572,53.41672,percentage_own,34.43372217
E08000010,1750,Wigan,361033,403243,E12000002,49212,45766,655,20083,4250,20040,2721,378,Suburban,143105,-2.57242,53.51445,percentage_own,34.38873554
E08000011,1787,Knowsley,344694,392430,E12000002,18902,20384,543,7109,9578,8366,1095,96,Suburban,66073,-2.83297,53.43788,percentage_own,28.60775203
E08000012,4346.1,Liverpool,339133,389144,E12000002,50393,46648,1378,9355,45403,49950,4117,247,Urban,207491,-2.91368,53.40833,percentage_own,24.28683654
E08000013,1343.6,St. Helens,352124,396102,E12000002,28023,24026,627,5030,10963,10785,1479,80,Suburban,81013,-2.70309,53.45862,percentage_own,34.5907447
E08000014,1783.4,Sefton,332846,408176,E12000002,46426,35565,845,4159,13576,20029,2428,45,Suburban,123073,-2.99177,53.48212,percentage_own,37.7223274
E08000015,1989.7,Wirral,327405,386273,E12000002,51333,41781,887,5611,16454,24397,2694,95,Suburban,143252,-3.06703,53.37478,percentage_own,35.83405467
E08000016,743.3,Barnsley,431083,404470,E12000003,35620,31733,522,16772,4522,16296,2273,315,Suburban,108053,-1.54925,53.52577,percentage_own,32.96530406
E08000017,542.4,Doncaster,460041,405684,E12000003,44881,39002,563,18396,4298,22953,2988,399,Suburban,133480,-1.10894,53.52695,percentage_own,33.62376386
E08000018,927.7,Rotherham,447556,390471,E12000003,38318,34178,467,18981,4564,14651,2384,383,Suburban,113926,-1.28651,53.39553,percentage_own,33.63411337
E08000021,2646.1,Newcastle upon Tyne,421988,568195,E12000001,30707,29769,580,24431,9045,25300,2678,287,Urban,122797,-1.65297,55.021,percentage_own,25.00631123
E08000022,2538.6,North Tyneside,430940,570503,E12000001,31038,30233,504,14069,5696,12755,1870,67,Urban,96232,-1.50923,55.02896,percentage_own,32.25330451
E08000023,2294.2,South Tyneside,435717,563346,E12000001,20503,18152,336,15720,4488,7742,1283,64,Suburban,68288,-1.44679,54.96988,percentage_own,30.02430881
E08000024,1994.6,Sunderland,435242,554109,E12000001,38312,32680,484,13760,18794,15827,2269,51,Suburban,122177,-1.43344,54.85719,percentage_own,31.3577842
E08000025,4275.4,Birmingham,408620,287849,E12000005,114970,108046,3641,58609,40890,86669,9050,1580,Urban,423455,-1.88141,52.48404,percentage_own,27.15046463
E08000026,3500.7,Coventry,432736,280037,E12000005,40278,36784,906,7244,15522,30134,3061,211,Urban,134140,-1.51905,52.41423,percentage_own,30.02683763
E08000027,3302.4,Dudley,392753,287253,E12000005,51133,39920,618,21157,4864,16644,2296,437,Urban,137069,-2.10171,52.49513,percentage_own,37.30456923
E08000028,3994.9,Sandwell,399516,290879,E12000005,35924,34080,631,27293,7319,21710,2527,762,Urban,130246,-2.00771,52.51477,percentage_own,27.58165318
E08000029,1212.9,Solihull,418611,279457,E12000005,35054,29584,710,8901,3631,10249,1247,106,Suburban,89482,-1.71558,52.431,percentage_own,39.17435909
E08000030,2733.1,Walsall,402370,300150,E12000005,36296,30293,557,9241,17335,16323,2013,168,Urban,112226,-1.97043,52.60505,percentage_own,32.34188156
E08000031,3797.9,Wolverhampton,391927,299026,E12000005,31345,26465,445,19761,6723,17922,2084,397,Urban,105142,-2.12746,52.59788,percentage_own,29.81206369
E08000032,1491.2,Bradford,409656,438737,E12000003,66875,62698,1043,11798,18933,42709,5569,242,Suburban,209867,-1.87389,53.84382,percentage_own,31.86541953
E08000033,567.8,Calderdale,401827,424977,E12000003,31269,27170,366,3793,9377,16210,2227,64,Suburban,90476,-1.9618,53.72047,percentage_own,34.56054644
E08000034,1060.3,Kirklees,415745,414567,E12000003,62352,54256,676,19678,6610,29858,4084,475,Suburban,177989,-1.78085,53.64233,percentage_own,35.03137834
E08000035,1471.7,Leeds,432624,436701,E12000003,95452,99132,1947,51716,18026,68197,6205,791,Suburban,341466,-1.50736,53.82273,percentage_own,27.95358835
E08000036,1043.6,Wakefield,438985,418409,E12000003,48566,47260,1200,22323,10865,19969,2785,107,Suburban,153075,-1.42091,53.65918,percentage_own,31.72693124
E08000037,1378,Gateshead,420364,560133,E12000001,27161,24448,350,17308,5026,12920,1664,122,Suburban,88999,-1.68696,54.93115,percentage_own,30.51832043
E09000001,2975,City of London,532539,181164,E12000007,2228,1360,24,898,562,4128,618,10,Urban,9828,-0.09351,51.51564,percentage_own,22.66992267
E09000002,6065.8,Barking and Dagenham,548056,184924,E12000007,11130,20189,1274,18077,5196,16443,1447,146,Urban,73902,0.129479,51.54555,percentage_own,15.06048551
E09000003,4488.7,Barnet,524095,192314,E12000007,39083,39324,1633,10030,10004,45180,3525,138,Urban,148917,-0.21819,51.61107,percentage_own,26.24482094
E09000004,4070.7,Bexley,548955,175730,E12000007,31210,34207,1263,2491,11486,13078,1500,65,Urban,95300,0.146212,51.45822,percentage_own,32.74921301
E09000005,7859.6,Brent,520189,185924,E12000007,23933,21660,2246,10444,17432,39732,2994,171,Urban,118612,-0.27568,51.56438,percentage_own,20.1775537
E09000006,2197.7,Bromley,542864,165667,E12000007,44794,48234,1166,2090,15836,21418,2243,47,Suburban,135828,0.039246,51.37266,percentage_own,32.97847277
E09000007,9640.9,Camden,527931,184580,E12000007,14780,12727,715,21051,10199,30382,2630,274,Urban,92758,-0.16291,51.54305,percentage_own,15.93393562
E09000008,4516,Croydon,533300,163557,E12000007,36992,46675,2183,14769,12602,36484,2957,283,Urban,152945,-0.07761,51.36598,percentage_own,24.18647226
E09000009,6611.6,Ealing,515931,181701,E12000007,30275,31539,2658,11326,12056,42063,3427,313,Urban,133657,-0.3141,51.52442,percentage_own,22.65126406
E09000010,4082.5,Enfield,532411,196432,E12000007,31740,31607,1319,12530,8043,32773,2615,296,Urban,120923,-0.08144,51.64889,percentage_own,26.2481083
E09000011,6108.6,Greenwich,542847,177046,E12000007,18473,28454,2471,21257,14070,26863,2225,238,Urban,114051,0.050093,51.46394,percentage_own,16.19713988
E09000013,11161.1,Hammersmith and Fulham,523529,178905,E12000007,12483,13607,1208,11840,12391,27284,2274,157,Urban,81244,-0.21735,51.48733,percentage_own,15.36482694
E09000014,8930.2,Haringey,531225,189614,E12000007,18141,20975,1732,15630,10844,35052,2324,393,Urban,105091,-0.1067,51.58771,percentage_own,17.2621823
E09000015,5175.4,Harrow,514912,190121,E12000007,26947,25743,1007,4977,4321,24354,2141,152,Urban,89642,-0.33598,51.59467,percentage_own,30.06068584
E09000016,2332.3,Havering,554032,187245,E12000007,34918,35461,976,9423,4384,14452,1567,95,Suburban,101276,0.235368,51.56519,percentage_own,34.47805995
E09000017,2644,Hillingdon,507905,183585,E12000007,28994,32837,1373,10179,7434,25692,2584,135,Urban,109228,-0.44179,51.53664,percentage_own,26.54447578
E09000018,5148,Hounslow,513589,175668,E12000007,21761,25283,2225,13251,8367,29537,2251,286,Urban,102961,-0.37855,51.46238,percentage_own,21.13518711
E09000019,14574.9,Islington,531145,185005,E12000007,11151,14589,1580,24081,14706,28084,1995,310,Urban,96496,-0.10989,51.54546,percentage_own,11.55591942
E09000020,11816.5,Kensington and Chelsea,525606,179504,E12000007,13301,7890,676,7154,11276,23560,2900,127,Urban,66884,-0.18978,51.49645,percentage_own,19.88666946
E09000021,4512.1,Kingston upon Thames,519327,166705,E12000007,18519,21418,460,4647,2597,16535,1376,76,Urban,65628,-0.28367,51.39296,percentage_own,28.2181386
E09000022,11839.1,Lambeth,530807,174499,E12000007,16180,28289,2441,24126,21117,39228,3101,206,Urban,134688,-0.11385,51.46445,percentage_own,12.01294844
E09000023,8551.5,Lewisham,537676,174051,E12000007,18853,32377,1944,16045,19708,30797,2492,177,Urban,122393,-0.01734,51.4423,percentage_own,15.40365871
E09000024,5721.6,Merton,525579,169458,E12000007,20695,24773,869,2342,9257,21998,1750,42,Urban,81726,-0.18868,51.41058,percentage_own,25.32241881
E09000025,9690.1,Newham,541466,182855,E12000007,14695,20884,2739,17989,14401,41391,3088,324,Urban,115511,0.027261,51.53149,percentage_own,12.72173213
E09000026,5501.9,Redbridge,543919,189405,E12000007,27956,31265,983,6604,5103,29079,2497,227,Urban,103714,0.070085,51.58588,percentage_own,26.95489519
E09000027,3401.9,Richmond upon Thames,517367,172867,E12000007,24535,25826,560,1829,7923,18393,1577,61,Urban,80704,-0.28914,51.44035,percentage_own,30.40121927
E09000028,10659,Southwark,533829,176738,E12000007,13879,23870,3182,35433,16558,34493,3013,392,Urban,130820,-0.07308,51.46594,percentage_own,10.60923406
E09000029,4781,Sutton,526964,164120,E12000007,23400,29647,889,5399,6268,15372,1311,61,Urban,82347,-0.17226,51.35755,percentage_own,28.41633575
E09000030,15702.9,Tower Hamlets,536495,181509,E12000007,9424,18459,3143,16697,26540,43126,2874,276,Urban,120539,-0.03647,51.51554,percentage_own,7.818216511
E09000031,7173.3,Waltham Forest,537726,190195,E12000007,20817,29539,1700,10737,11362,26361,2232,153,Urban,102901,-0.0188,51.59461,percentage_own,20.2301241
E09000032,9560,Wandsworth,526055,174145,E12000007,24410,33915,2509,16653,9891,46295,3535,184,Urban,137392,-0.20021,51.4524,percentage_own,17.76668219
E09000033,9514.2,Westminster,527739,181005,E12000007,15213,10749,695,12418,14392,36871,4194,284,Urban,94816,-0.15295,51.51221,percentage_own,16.04476038
W06000001,96.7,Isle of Anglesey,241795,379205,W92000004,13756,7264,87,3783,1037,3735,1064,98,Rural,30824,-4.32298,53.27931,percentage_own,44.62756294
W06000002,46.3,Gwynedd,263903,334963,W92000004,22214,11214,150,3524,5033,7060,1805,105,Rural,51105,-3.77715,52.89883,percentage_own,43.4673711
W06000003,101.9,Conwy,283987,361802,W92000004,22759,12967,291,2051,4206,8526,1394,41,Rural,52235,-3.74646,53.14739,percentage_own,43.57040299
W06000004,114.5,Denbighshire,309404,355776,W92000004,16828,11112,234,3298,2350,7295,1197,73,Rural,42387,-3.34761,53.08833,percentage_own,39.70085168
W06000005,352.3,Flintshire,322419,369649,W92000004,25945,22074,307,6985,2729,7544,1295,32,Rural,66911,-3.18248,53.21471,percentage_own,38.7753882
W06000006,268.2,Wrexham,331795,344142,W92000004,19947,16271,182,9958,2203,7890,1276,188,Rural,57915,-2.99203,53.00167,percentage_own,34.44185444
W06000008,40,Ceredigion,258574,263991,W92000004,14798,6378,96,752,2487,5294,1077,9,Rural,30891,-3.94993,52.29795,percentage_own,47.90392024
W06000009,76.2,Pembrokeshire,201312,221152,W92000004,24647,12556,141,5691,3303,7277,1837,35,Rural,55487,-4.90818,51.85513,percentage_own,44.41941356
W06000010,79.3,Carmarthenshire,251227,224511,W92000004,35629,21936,209,8540,3158,10048,2123,116,Rural,81759,-4.21109,51.89495,percentage_own,43.57807703
W06000011,631.5,Swansea,257445,195641,W92000004,37162,28224,315,12257,7788,16417,2484,315,Suburban,104962,-3.96723,51.65806,percentage_own,35.40519426
W06000012,322.5,Neath Port Talbot,279564,199348,W92000004,23850,17661,99,4657,7342,7014,1638,116,Rural,62377,-3.74638,51.6445,percentage_own,38.23524697
W06000013,580.1,Bridgend,289150,185340,W92000004,23670,20291,136,2087,6587,8128,1398,63,Suburban,62360,-3.61375,51.5606,percentage_own,37.95702373
W06000014,398.4,Vale of Glamorgan,302809,172697,W92000004,22052,19231,135,3660,3363,7474,1503,31,Rural,57449,-3.39801,51.44836,percentage_own,38.38535048
W06000015,2571.3,Cardiff,316778,179542,W92000004,42072,43355,439,12883,12395,32757,3028,404,Urban,147333,-3.22209,51.50254,percentage_own,28.55572071
W06000016,560.3,Rhondda Cynon Taf,300745,195665,W92000004,39686,30943,173,5744,8431,15671,2567,124,Suburban,103339,-3.41359,51.62185,percentage_own,38.40370044
W06000018,634.2,Caerphilly,316753,195610,W92000004,27449,24053,228,10065,4258,8598,1556,48,Suburban,76255,-3.19753,51.65001,percentage_own,35.99632811
W06000019,615.1,Blaenau Gwent,317699,208201,W92000004,10564,7658,36,2776,4418,4160,687,41,Suburban,30340,-3.18592,51.75364,percentage_own,34.81872116
W06000020,734.4,Torfaen,327301,200555,W92000004,13952,11963,223,3324,6251,3701,794,33,Suburban,40241,-3.05101,51.69836,percentage_own,34.67110658
W06000021,109.5,Monmouthshire,340238,206911,W92000004,17738,11691,147,1493,4250,4674,908,21,Rural,40922,-2.9028,51.77827,percentage_own,43.34587752
W06000022,838.1,Newport,333448,186541,W92000004,20172,21387,474,5648,7216,9663,1356,138,Suburban,66054,-2.89769,51.58231,percentage_own,30.5386502
W06000023,25.7,Powys,303993,270454,W92000004,28098,12586,151,5294,3187,8592,2168,106,Rural,60182,-3.43531,52.34863,percentage_own,46.68837858
W06000024,528.2,Merthyr Tydfil,306153,205467,W92000004,9101,7012,33,2168,3458,3325,642,44,Suburban,25783,-3.36425,51.7484,percentage_own,35.29845247
E06000007,1168,Warrington,362665,389223,E12000002,31939,30246,686,4982,8860,12193,1580,52,Suburban,90538,-2.56167,53.39164,percentage_own,35.27690031
E06000008,1129.4,Blackburn with Darwen,369254,421850,E12000002,19573,15958,308,2718,8313,10290,1560,47,Suburban,58767,-2.46361,53.7008,percentage_own,33.30610717
E06000009,4041.1,Blackpool,331921,436188,E12000002,20348,16886,213,3947,2753,18843,1726,67,Urban,64783,-3.02199,53.82164,percentage_own,31.40947471
E06000010,3730.1,Kingston upon Hull,509765,430588,E12000003,26695,29046,585,21768,9399,25419,2174,389,Urban,115475,-0.30385,53.76921,percentage_own,23.11755791
E06000013,200.4,North Lincolnshire,493268,411782,E12000003,27829,21567,204,5035,5918,10929,1626,64,Rural,73172,-0.52407,53.58643,percentage_own,38.03230744
E06000016,5027.2,Leicester,459135,304861,E12000004,31324,28106,662,18748,10747,34549,2888,365,Urban,127389,-1.1304,52.63592,percentage_own,24.58925025
E06000022,559.2,Bath and North East Somerset,367057,162001,E12000009,28855,22878,790,3064,8299,13758,1551,55,Suburban,79250,-2.48657,51.35604,percentage_own,36.41009464
E06000025,584.3,South Gloucestershire,367431,183263,E12000009,43220,42272,1231,2122,10616,16441,2147,52,Suburban,118101,-2.46926,51.54672,percentage_own,36.59579512
E06000030,1014.4,Swindon,417817,185857,E12000009,27968,33075,1203,9786,5158,16798,1722,151,Suburban,95861,-1.73369,51.57764,percentage_own,29.17557714
E06000033,4335.6,Southend-on-Sea,589363,185610,E12000006,24722,23301,503,4822,4197,19085,1674,40,Urban,78344,0.706923,51.54917,percentage_own,31.55570305
E06000034,1074.2,Thurrock,564863,181237,E12000006,16912,25108,445,9639,2094,11015,1116,48,Suburban,66377,0.334874,51.50996,percentage_own,25.47870497
E06000046,370,Isle of Wight,449779,86461,E12000008,28737,15083,509,678,6379,11731,1649,9,Rural,64775,-1.33366,50.67129,percentage_own,44.36433809
E06000049,341.9,Cheshire East,376729,364874,E12000002,69191,56455,1772,4659,15584,23868,3246,79,Rural,174854,-2.29299,53.16793,percentage_own,39.57072758
E06000052,160.9,Cornwall,199168,59975,E12000009,104659,61299,2949,13023,19016,41545,7826,216,Rural,250533,-4.64254,50.45022,percentage_own,41.77453669
E07000011,199.6,Huntingdonshire,521228,276573,E12000006,27621,25402,1051,1819,8067,11117,1780,23,Rural,76880,-0.2247,52.35314,percentage_own,35.92741935
E07000039,317.1,South Derbyshire,429750,326002,E12000004,16388,17321,368,2780,1686,5836,812,48,Rural,45239,-1.5348,52.8249,percentage_own,36.22538076
E07000040,185.2,East Devon,313793,96775,E12000009,31228,16967,947,4030,2868,8960,1737,51,Rural,66788,-3.22364,50.75761,percentage_own,46.75690244
E07000044,100,South Hams,270440,54205,E12000009,17708,10008,628,728,3925,5258,1068,14,Rural,39337,-3.81996,50.37196,percentage_own,45.01614256
E07000064,182.8,Rother,578409,119997,E12000008,20395,10210,372,645,3648,5862,965,5,Rural,42102,0.542937,50.94871,percentage_own,48.44187925
E07000065,192.2,Wealden,554434,120966,E12000008,30510,22033,794,2887,2814,7658,1545,25,Rural,68266,0.205156,50.93323,percentage_own,44.69281927
E07000066,1705.1,Basildon,570901,190821,E12000006,23029,25268,876,10563,5650,9762,1114,101,Suburban,76363,0.475056,51.59037,percentage_own,30.15727512
E07000073,3056.1,Harlow,545614,209915,E12000006,8723,11622,499,9051,2046,5298,526,91,Urban,37856,0.103888,51.76614,percentage_own,23.04258242
E07000078,2549.3,Cheltenham,395079,221973,E12000009,18362,15273,397,4069,2363,11406,972,57,Urban,52899,-2.07515,51.89861,percentage_own,34.71143122
E07000081,3266.6,Gloucester,383531,216834,E12000009,17510,17869,630,2797,4740,10691,1112,57,Urban,55406,-2.23263,51.84641,percentage_own,31.60307548
E07000083,229,Tewkesbury,394038,227458,E12000009,15984,12975,918,865,4333,4763,1078,15,Rural,40931,-2.19997,51.93487,percentage_own,39.05108597
E07000090,2228.4,Havant,471226,104842,E12000008,20869,15526,469,5040,4949,5760,895,81,Suburban,53589,-1.00398,50.87231,percentage_own,38.94269346
E07000103,4772.2,Watford,510556,197803,E12000006,9577,12268,419,1531,4641,10505,672,16,Urban,39629,-0.40429,51.6717,percentage_own,24.16664564
E07000112,307.5,Folkestone and Hythe,610024,132599,E12000008,18966,12841,365,3153,2098,9555,1315,44,Rural,48337,1.000796,51.07215,percentage_own,39.2370234
E07000119,491.2,Fylde,339324,432384,E12000002,16369,10575,288,404,2730,6239,991,10,Rural,37606,-2.91914,53.79709,percentage_own,43.52762857
E07000120,1126.6,Hyndburn,374414,429238,E12000002,11917,10027,80,1222,3489,7088,947,20,Suburban,34790,-2.38964,53.75644,percentage_own,34.254096
E07000124,105.6,Ribble Valley,370849,445761,E12000002,11654,8533,405,292,1859,3273,730,1,Rural,26747,-2.41737,53.92451,percentage_own,43.57124163
E07000136,193.7,Boston,532926,343714,E12000004,9967,7338,376,1969,3757,5425,540,32,Rural,29404,-0.11218,52.97797,percentage_own,33.89674874
E07000142,82.3,West Lindsey,501339,389522,E12000004,17553,12206,391,1190,3415,6431,1139,20,Rural,42345,-0.50774,53.40044,percentage_own,41.45235565
E07000147,106.6,North Norfolk,613546,332832,E12000006,23509,9701,333,998,5277,7170,1368,18,Rural,48374,1.132099,52.83389,percentage_own,48.59842064
E07000174,1440.2,Mansfield,455327,364075,E12000004,16668,14088,214,5738,2127,8156,909,131,Suburban,48031,-1.17804,53.16703,percentage_own,34.70258791
E07000198,166.4,Staffordshire Moorlands,401331,353540,E12000005,20401,12740,164,1069,2584,4501,872,24,Rural,42355,-1.99334,53.06928,percentage_own,48.16668634
E07000202,3534.3,Ipswich,616698,244356,E12000006,16810,16182,353,7614,4754,12583,1081,130,Urban,59507,1.166175,52.05592,percentage_own,28.24877745
E07000214,951.2,Surrey Heath,492648,161313,E12000008,13156,13495,364,477,2972,4611,920,13,Suburban,36008,-0.68983,51.33612,percentage_own,36.53632526
E08000001,2117,Bolton,369187,409211,E12000002,39475,33608,493,12540,11015,18776,2596,287,Suburban,118790,-2.47952,53.5845,percentage_own,33.23091169
E08000019,1512.5,Sheffield,430011,389797,E12000003,71903,63274,776,36110,16224,38976,4448,237,Suburban,231948,-1.54254,53.40358,percentage_own,30.9996206
E09000012,13593.3,Hackney,534348,185478,E12000007,10263,15803,2664,21943,21002,31943,2204,259,Urban,106081,-0.06045,51.55492,percentage_own,9.674682554
E07000075,512.7,Rochford,594750,191782,E12000006,15572,13102,205,365,2506,3203,602,3,Suburban,35558,0.683442,51.5909,percentage_own,43.79323921
E07000077,142.5,Uttlesford,556816,228707,E12000006,13177,12909,659,2682,2127,4519,856,26,Rural,36955,0.294499,51.9359,percentage_own,35.65687999
E07000105,228.6,Ashford,596857,139969,E12000008,18032,17565,917,4750,2751,8236,1263,69,Rural,53583,0.823374,51.13096,percentage_own,33.6524644
E06000053,125.9,Isles of Scilly,91546,11139,E12000009,640,196,28,206,118,448,240,2,Rural,1878,-6.30217,49.92332,percentage_own,34.07880724
E09000001,2975,City of London,532539,181164,E12000007,2228,1360,24,898,562,4128,618,10,Urban,9828,-0.09351,51.51564,percentage_own,22.66992267
E06000001,985.5,Hartlepool,448118,530661,E12000001,12761,11073,239,3986,5608,6338,856,68,Suburban,40929,-1.27018,54.67614,percentage_mortgage,27.05416697
E06000002,2671.2,Middlesbrough,450380,516653,E12000001,17224,15913,330,6773,7233,11286,1391,115,Urban,60265,-1.21099,54.54467,percentage_mortgage,26.40504439
E06000003,557.1,Redcar and Cleveland,463383,518023,E12000001,22649,17205,346,5269,6380,8410,1338,41,Suburban,61638,-1.00608,54.56752,percentage_mortgage,27.91297576
E06000004,959.3,Stockton-on-Tees,443484,518785,E12000001,27726,27686,385,7204,6469,12388,1819,79,Suburban,83756,-1.30664,54.55687,percentage_mortgage,33.05554229
E06000005,545.9,Darlington,429038,517147,E12000001,16222,14474,190,5112,2819,9035,1043,20,Suburban,48915,-1.56835,54.53534,percentage_mortgage,29.59010528
E06000006,1624.3,Halton,352162,383230,E12000002,17096,16744,429,2898,10721,7088,930,45,Suburban,55951,-2.68853,53.33424,percentage_mortgage,29.92618541
E06000011,142.4,East Riding of Yorkshire,499908,442365,E12000003,65680,45518,634,10874,3406,22171,3561,222,Rural,152066,-0.66195,53.88112,percentage_mortgage,29.93305538
E06000012,815,North East Lincolnshire,523749,406881,E12000003,24373,20211,358,2729,6462,14185,1459,49,Suburban,69826,-0.13911,53.52327,percentage_mortgage,28.94480566
E06000014,745.8,York,461737,451799,E12000003,31453,24182,719,7152,4772,15209,1875,96,Suburban,85458,-1.07376,53.96583,percentage_mortgage,28.29694119
E06000015,3349.5,Derby,435851,335169,E12000004,33384,28985,790,11713,8138,20395,2058,188,Urban,105651,-1.47186,52.91464,percentage_mortgage,27.43466697
E06000017,107.5,Rutland,491121,307844,E12000004,7286,4555,233,310,1509,2082,708,8,Rural,16691,-0.6263,52.66765,percentage_mortgage,27.29015637
E06000018,4337.6,Nottingham,455451,340739,E12000004,27940,28375,609,22854,8942,33039,2649,335,Urban,124743,-1.16667,52.9542,percentage_mortgage,22.74676735
E06000019,85.8,Herefordshire,349035,245285,E12000005,35070,19893,916,2657,8652,12943,2662,34,Rural,82827,-2.73931,52.08162,percentage_mortgage,24.01753052
E06000020,639.1,Telford and Wrekin,367109,314837,E12000005,23088,22776,586,4966,8818,14694,1503,78,Suburban,76509,-2.48941,52.71417,percentage_mortgage,29.76904678
E06000021,2764.8,Stoke-on-Trent,389018,346716,E12000005,33558,29095,404,16913,7656,20065,2335,374,Urban,110400,-2.15888,53.01706,percentage_mortgage,26.35416667
E06000023,4308.1,Bristol,346546,172919,E12000009,48199,55221,1656,24977,10902,46271,3942,470,Urban,191638,-2.57742,51.47113,percentage_mortgage,28.81526628
E06000024,579.9,North Somerset,344429,165882,E12000009,37250,30532,679,2003,6711,15541,1879,53,Suburban,94648,-2.75438,51.39706,percentage_mortgage,32.2584735
E06000026,3314.8,Plymouth,249389,56735,E12000009,33783,32255,1349,7386,13725,22754,3167,138,Urban,114557,-4.11297,50.40494,percentage_mortgage,28.15628901
E06000027,2215.6,Torbay,291417,61223,E12000009,24663,15699,622,561,4664,15195,1572,16,Suburban,62992,-3.55523,50.47092,percentage_mortgage,24.92221234
E06000031,628.1,Peterborough,518343,302621,E12000006,22268,24624,1167,5009,10751,18675,1937,102,Suburban,84533,-0.26874,52.59214,percentage_mortgage,29.1294524
E06000032,5196,Luton,508515,222915,E12000006,20296,22281,426,8498,4425,21280,1607,127,Urban,78940,-0.42319,51.89102,percentage_mortgage,28.22523436
E06000035,1444.2,Medway,578769,172759,E12000008,34388,37734,1646,4553,10577,20219,2272,68,Suburban,111457,0.563174,51.44772,percentage_mortgage,33.85520874
E06000036,1139.2,Bracknell Forest,487739,168395,E12000008,14488,19053,877,2507,5382,6957,945,36,Suburban,50245,-0.73364,51.41129,percentage_mortgage,37.92019106
E06000037,229.3,West Berkshire,448409,172535,E12000008,23209,21828,878,787,8518,9668,1763,7,Rural,66658,-1.27365,51.44559,percentage_mortgage,32.74625701
E06000038,4312.6,Reading,470639,173186,E12000008,15426,18707,883,6145,4779,20373,1250,120,Urban,67683,-0.99075,51.45301,percentage_mortgage,27.63914129
E06000039,4871.5,Slough,498180,179746,E12000008,10215,15186,573,6304,3962,15101,994,88,Urban,52423,-0.57617,51.5035,percentage_mortgage,28.96820098
E06000040,781.1,Windsor and Maidenhead,490435,177040,E12000008,20393,19913,392,705,6950,10635,1918,23,Suburban,60929,-0.67541,51.48034,percentage_mortgage,32.68230235
E06000041,991.7,Wokingham,477672,170613,E12000008,24952,27647,1426,2844,2487,8665,1117,27,Suburban,69165,-0.89935,51.42296,percentage_mortgage,39.97252946
E06000042,930.1,Milton Keynes,486881,243629,E12000008,27193,34752,6905,11029,9419,21780,1876,149,Suburban,113103,-0.7407,52.07241,percentage_mortgage,30.72597544
E06000043,3345.3,Brighton and Hove,531606,106526,E12000008,30444,31973,997,11587,6464,37167,2517,253,Urban,121402,-0.15081,50.8465,percentage_mortgage,26.33646892
E06000044,5149.8,Portsmouth,465010,102752,E12000008,21958,23066,769,9394,6113,22196,2473,186,Urban,86155,-1.07006,50.808,percentage_mortgage,26.77267715
E06000045,4990.5,Southampton,442376,113232,E12000008,23049,25789,1061,14958,7439,28063,1797,134,Urban,102290,-1.39952,50.9212,percentage_mortgage,25.21165314
E06000047,234.5,County Durham,410446,533389,E12000001,81046,65775,692,21999,24859,35156,5042,195,Rural,234764,-1.84047,54.68513,percentage_mortgage,28.01749842
E06000050,388.2,Cheshire West and Chester,350919,367257,E12000002,57620,48336,1945,9412,13298,21291,3093,159,Rural,155154,-2.70298,53.16336,percentage_mortgage,31.15356356
E06000051,101.2,Shropshire,350424,304422,E12000005,59262,36522,1170,5616,12553,20425,3942,89,Rural,139579,-2.73667,52.62209,percentage_mortgage,26.16582724
E06000053,125.9,Isles of Scilly,91546,11139,E12000009,640,196,28,206,118,448,240,2,Rural,1878,-6.30217,49.92332,percentage_mortgage,10.43663472
E06000054,156.8,Wiltshire,403934,155301,E12000009,80220,63547,2546,7845,23383,27674,9748,118,Rural,215081,-1.92655,51.32882,percentage_mortgage,29.54561305
E06000055,388.8,Bedford,504237,255656,E12000006,23359,23605,1427,1782,10418,12905,1411,42,Rural,74949,-0.45463,52.19628,percentage_mortgage,31.49474976
E06000056,411.2,Central Bedfordshire,507413,235392,E12000006,40618,45305,2112,5620,10457,14329,2238,75,Rural,120754,-0.47754,51.99903,percentage_mortgage,37.51842589
E06000057,63.9,Northumberland,395886,594161,E12000001,56684,39104,801,13597,12488,20149,3979,120,Rural,146922,-2.07523,55.30038,percentage_mortgage,26.61548305
E06000058,2469.2,Bournemouth Christchurch and Poole,408362,94131,E12000009,59736,49485,1226,8864,10238,40460,3692,141,Suburban,173842,-1.84807,50.74609,percentage_mortgage,28.46550316
E06000059,152.4,Dorset,376581,100771,E12000009,77561,41593,1620,2263,18573,22778,4834,39,Rural,169261,-2.41459,50.79698,percentage_mortgage,24.57329213
E06000060,353.4,Buckinghamshire,482081,210241,E12000008,77213,77026,2813,5766,22769,29769,4861,110,Rural,220327,-0.80573,51.76967,percentage_mortgage,34.95985512
E06000061,364.4,North Northamptonshire,493494,281667,E12000004,47617,49245,1760,10410,12261,24645,2810,170,Rural,148918,-0.62504,52.42547,percentage_mortgage,33.06853436
E06000062,309.1,West Northamptonshire,465908,258722,E12000004,53782,58173,2647,12035,12776,29463,3537,226,Rural,172639,-1.01682,52.26898,percentage_mortgage,33.69632586
E07000008,3579.2,Cambridge,545770,257755,E12000006,12897,10234,872,6910,4980,14735,1760,86,Urban,52474,0.126436,52.20017,percentage_mortgage,19.50299196
E07000009,134.8,East Cambridgeshire,556466,274112,E12000006,13485,11822,565,684,4516,5103,1017,10,Rural,37202,0.283149,52.35788,percentage_mortgage,31.77786141
E07000010,187.5,Fenland,539807,298084,E12000006,16632,12820,236,1174,4407,7788,1007,19,Rural,44083,0.008927,52.53545,percentage_mortgage,29.08150534
E07000012,179.8,South Cambridgeshire,542444,254795,E12000006,24426,21736,1677,5397,4299,8055,1328,78,Rural,66996,0.091017,52.10805,percentage_mortgage,32.44372798
E07000026,77.4,Allerdale,319765,535836,E12000002,18770,11276,241,1096,7217,4241,1122,10,Rural,43973,,,percentage_mortgage,25.64300821
E07000027,865.3,Barrow-in-Furness,320831,470657,E12000002,12250,10211,54,2388,1063,4588,671,34,Suburban,31259,,,percentage_mortgage,32.66579225
E07000028,106,Carlisle,348339,564335,E12000002,19427,14620,419,1402,5870,7687,1213,25,Rural,50663,,,percentage_mortgage,28.85735152
E07000029,91.7,Copeland,310947,502927,E12000002,12988,8849,98,1635,3794,2726,673,25,Rural,30788,,,percentage_mortgage,28.74171755
E07000030,25.5,Eden,359952,524354,E12000002,11661,5702,256,399,2143,3522,930,0,Rural,24613,,,percentage_mortgage,23.16661927
E07000031,68,South Lakeland,344716,488871,E12000002,22394,11873,276,2201,2911,6525,1449,28,Rural,47657,,,percentage_mortgage,24.91344399
E07000032,475.6,Amber Valley,435845,348157,E12000004,23051,17474,297,2302,4867,7174,1061,51,Rural,56277,-1.46219,53.02884,percentage_mortgage,31.0499849
E07000033,500.7,Bolsover,448358,368917,E12000004,12391,10873,117,4647,1115,5373,683,63,Suburban,35262,-1.27228,53.23874,percentage_mortgage,30.83489309
E07000034,1568.4,Chesterfield,440052,373318,E12000004,17249,12824,158,8428,1539,6882,899,79,Suburban,48058,-1.40115,53.25574,percentage_mortgage,26.68442299
E07000035,90.3,Derbyshire Dales,420549,359062,E12000004,15405,7824,319,942,3133,3731,919,10,Rural,32283,-1.70708,53.12327,percentage_mortgage,24.23566583
E07000036,1029.9,Erewash,443979,337734,E12000004,18887,16285,265,1775,4623,7518,952,31,Suburban,50336,-1.35089,52.93819,percentage_mortgage,32.35259059
E07000037,168.7,High Peak,408491,386271,E12000004,16367,12562,284,3610,1347,5633,912,57,Rural,40772,-1.844,53.38563,percentage_mortgage,30.81036005
E07000038,370.1,North East Derbyshire,436969,370027,E12000004,18959,13467,270,7020,1577,3841,767,86,Rural,45987,-1.44253,53.16243,percentage_mortgage,29.28436297
E07000041,2780,Exeter,293498,92447,E12000009,16369,13703,583,4640,4087,12024,1083,65,Urban,52554,-3.51368,50.71782,percentage_mortgage,26.07413327
E07000042,90.8,Mid Devon,290588,109637,E12000009,14110,9988,365,2830,1674,5704,908,52,Rural,35631,-3.5921,50.86884,percentage_mortgage,28.03177009
E07000043,90.8,North Devon,265967,131782,E12000009,18055,11025,477,1110,3701,7364,1449,17,Rural,43198,-3.92688,51.07621,percentage_mortgage,25.52201491
E07000045,200.1,Teignbridge,282849,79821,E12000009,25889,16770,775,1324,4370,9357,1326,26,Rural,59837,-3.65289,50.60981,percentage_mortgage,28.02613767
E07000046,69.2,Torridge,241935,112003,E12000009,13870,7316,265,467,2380,5157,995,8,Rural,30458,-4.21728,50.90739,percentage_mortgage,24.01996191
E07000047,49.2,West Devon,255465,86000,E12000009,11569,6043,176,495,2000,3830,696,9,Rural,24818,-4.03358,50.66482,percentage_mortgage,24.34926263
E07000061,2302.6,Eastbourne,559822,99749,E12000008,16305,10924,270,3223,2717,11117,1001,53,Suburban,45610,0.258516,50.77387,percentage_mortgage,23.95088796
E07000062,3053.9,Hastings,580952,110924,E12000008,12644,10243,203,918,4853,10642,930,18,Urban,40451,0.578395,50.86724,percentage_mortgage,25.32199451
E07000063,342,Lewes,541167,111026,E12000008,18524,12549,410,3162,1612,6524,860,47,Rural,43688,0.007658,50.83342,percentage_mortgage,28.72413477
E07000067,253.8,Braintree,578133,230213,E12000006,22262,21828,475,2187,8406,8573,1222,30,Rural,64983,0.575912,51.91635,percentage_mortgage,33.59032362
E07000068,503.2,Brentwood,559999,195829,E12000006,11797,11461,214,2649,1011,4589,574,48,Suburban,32343,0.290091,51.64108,percentage_mortgage,35.43579755
E07000069,2005.4,Castle Point,579982,185122,E12000006,16937,13000,135,1423,628,4585,655,26,Suburban,37389,0.588127,51.56159,percentage_mortgage,34.76958464
E07000070,535.9,Chelmsford,571456,205876,E12000006,27057,25691,879,1619,8398,10479,1245,33,Suburban,75401,0.491177,51.73503,percentage_mortgage,34.07249241
E07000071,587.2,Colchester,597077,223202,E12000006,26126,25352,419,5645,4940,15003,2162,64,Suburban,79711,0.85982,51.87701,percentage_mortgage,31.80489518
E07000072,398.2,Epping Forest,548522,203300,E12000006,19180,18807,353,6215,1778,7082,1065,79,Rural,54559,0.154146,51.71278,percentage_mortgage,34.47093972
E07000074,185,Maldon,592438,204831,E12000006,12224,9034,227,266,2866,2670,609,4,Rural,27900,0.773106,51.77458,percentage_mortgage,32.37992832
E07000076,440.9,Tendring,614571,223776,E12000006,31510,16704,315,2702,2804,11829,1541,47,Rural,67452,1.108981,51.85674,percentage_mortgage,24.76427682
E07000079,78,Cotswold,407474,213072,E12000009,16177,10260,869,675,5557,5592,1457,10,Rural,40597,-1.97058,51.77255,percentage_mortgage,25.27280341
E07000080,165.4,Forest of Dean,366318,214546,E12000009,16466,10552,319,832,4004,4072,959,13,Rural,37217,-2.47755,51.81249,percentage_mortgage,28.35263455
E07000082,263,Stroud,379361,203473,E12000009,21548,16532,631,4521,1909,6125,1028,84,Rural,52378,-2.30818,51.72001,percentage_mortgage,31.56286991
E07000084,292.1,Basingstoke and Deane,455819,153006,E12000008,23475,26170,1475,765,12946,10412,1388,14,Rural,76645,-1.22023,51.25937,percentage_mortgage,34.14443212
E07000085,244.4,East Hampshire,473316,131076,E12000008,21080,17391,756,920,5687,5692,1184,9,Rural,52719,-0.93965,51.05774,percentage_mortgage,32.98810675
E07000086,1712.1,Eastleigh,447331,115065,E12000008,20012,20379,1160,673,6757,7081,855,7,Suburban,56924,-1.32947,50.94876,percentage_mortgage,35.8003654
E07000087,1542.1,Fareham,454571,106165,E12000008,21154,17037,342,2237,1722,4990,1116,41,Suburban,48639,-1.23742,50.85388,percentage_mortgage,35.02744711
E07000088,3229.8,Gosport,459361,100995,E12000008,12314,10535,434,2998,2864,5481,1233,61,Urban,35920,-1.16731,50.80636,percentage_mortgage,29.32906459
E07000089,461.8,Hart,476958,154529,E12000008,14958,15304,742,370,3144,4428,1014,5,Rural,39965,-0.88321,51.28198,percentage_mortgage,38.29350682
E07000091,233.7,New Forest,426464,106633,E12000008,36150,21371,504,4976,3391,9259,1865,51,Rural,77567,-1.59293,50.85751,percentage_mortgage,27.55166501
E07000092,2554.9,Rushmoor,486069,153516,E12000008,9979,13795,679,945,5424,6510,1939,32,Urban,39303,-0.76807,51.27815,percentage_mortgage,35.09910185
E07000093,207.9,Test Valley,434314,136669,E12000008,19742,17974,1049,1935,5907,6356,1714,29,Rural,54706,-1.50214,51.13417,percentage_mortgage,32.85562827
E07000094,192.8,Winchester,454712,125708,E12000008,18648,15270,702,4950,2987,7489,1607,59,Rural,51712,-1.24393,51.03002,percentage_mortgage,29.52892946
E07000095,1924.9,Broxbourne,534904,204646,E12000006,13178,14179,420,1400,4283,5783,584,23,Suburban,39850,-0.05073,51.7208,percentage_mortgage,35.58092848
E07000096,729.8,Dacorum,500758,209858,E12000006,19598,20937,394,9863,3457,8214,879,70,Suburban,63412,-0.55098,51.76845,percentage_mortgage,33.01740995
E07000098,1065.9,Hertsmere,518976,199022,E12000006,13227,14172,488,873,6528,6544,826,24,Suburban,42682,-0.26899,51.68017,percentage_mortgage,33.20369242
E07000099,354.9,North Hertfordshire,524291,230523,E12000006,18933,17828,642,3476,7118,7756,966,14,Rural,56733,-0.22316,51.95732,percentage_mortgage,31.42439145
E07000102,1055.8,Three Rivers,506561,196949,E12000006,12806,13334,276,1518,3949,4296,660,18,Suburban,36857,-0.45005,51.65632,percentage_mortgage,36.1776596
E07000106,509.9,Canterbury,616375,158359,E12000008,24477,16836,586,5006,2794,12522,1502,69,Suburban,63792,1.096328,51.28102,percentage_mortgage,26.39202408
E07000107,1605.3,Dartford,556785,172676,E12000008,12302,17694,1042,4274,2040,7617,658,67,Suburban,45694,0.245276,51.43373,percentage_mortgage,38.72280825
E07000108,369.2,Dover,629815,151044,E12000008,19753,13725,387,4196,2843,8379,1216,53,Rural,50552,1.276887,51.21176,percentage_mortgage,27.15026112
E07000109,1079.9,Gravesham,566746,170115,E12000008,13018,12942,443,5308,1962,7276,674,101,Suburban,41724,0.398744,51.39649,percentage_mortgage,31.01811907
E07000110,446.9,Maidstone,580248,151563,E12000008,24192,23799,1350,1887,7620,10725,1614,21,Rural,71208,0.584061,51.23566,percentage_mortgage,33.42180654
E07000111,326.4,Sevenoaks,551567,155211,E12000008,18769,16297,913,996,5469,5572,976,22,Rural,49014,0.188936,51.27563,percentage_mortgage,33.24968376
E07000113,406.2,Swale,595988,164044,E12000008,20788,19727,820,1325,6716,9851,1251,17,Rural,60495,0.776893,51.32251,percentage_mortgage,32.60930655
E07000114,1356.9,Thanet,632674,166985,E12000008,22731,15431,282,2940,4456,14755,1579,26,Suburban,62200,1.328226,51.35252,percentage_mortgage,24.80868167
E07000115,550.6,Tonbridge and Malling,564511,155282,E12000008,18379,19126,1108,1001,7254,5757,937,9,Suburban,53571,0.349305,51.26063,percentage_mortgage,35.70215228
E07000116,348,Tunbridge Wells,570254,137789,E12000008,16324,15069,521,946,6083,8297,971,13,Rural,48224,0.471631,51.10253,percentage_mortgage,31.24792634
E07000117,855,Burnley,385506,431414,E12000002,13051,10785,91,1747,4462,8621,1075,39,Suburban,39871,-2.2308,53.77404,percentage_mortgage,27.0497354
E07000118,580.6,Chorley,357265,418497,E12000002,18558,17598,358,1218,5419,6056,908,20,Suburban,50135,-2.61923,53.67238,percentage_mortgage,35.10122669
E07000121,252.1,Lancaster,353328,463919,E12000002,23152,17114,488,3384,2769,11460,1569,42,Rural,59978,-2.6603,54.07901,percentage_mortgage,28.53379573
E07000122,565.4,Pendle,387886,441045,E12000002,14127,10599,77,1421,3070,7622,1119,31,Suburban,38066,-2.18956,53.88636,percentage_mortgage,27.84374507
E07000123,1039,Preston,354185,435253,E12000002,18219,16524,511,1882,9101,11923,1410,37,Suburban,59607,-2.71804,53.82201,percentage_mortgage,27.72157632
E07000125,513.4,Rossendale,382473,421988,E12000002,10560,10190,72,1186,3328,4459,748,18,Suburban,30561,-2.26149,53.68476,percentage_mortgage,33.34314977
E07000126,981.4,South Ribble,353203,425975,E12000002,19428,17519,376,496,4543,5339,878,6,Suburban,48585,-2.72871,53.72676,percentage_mortgage,36.05845426
E07000127,338.8,West Lancashire,341717,412911,E12000002,18987,15337,443,5517,1441,5754,968,87,Rural,48534,-2.869,53.61284,percentage_mortgage,31.60052747
E07000128,396.7,Wyre,344008,445536,E12000002,22699,14539,407,544,3327,8064,1177,12,Rural,50769,-2.8036,53.89991,percentage_mortgage,28.63755441
E07000129,788.9,Blaby,452852,297375,E12000004,17012,16150,459,482,3015,4761,688,8,Suburban,42575,-1.19887,52.57706,percentage_mortgage,37.93305931
E07000130,659.2,Charnwood,457739,315833,E12000004,27619,23916,738,4921,3711,11541,1273,66,Suburban,73785,-1.13694,52.7399,percentage_mortgage,32.41309209
E07000131,165,Harborough,467383,293977,E12000004,16484,14148,805,405,3126,4687,752,7,Rural,40414,-0.90228,52.53764,percentage_mortgage,35.00767061
E07000132,382.2,Hinckley and Bosworth,441354,302271,E12000004,19715,17074,451,3005,2044,6199,915,42,Rural,49445,-1.41755,52.60877,percentage_mortgage,34.5312974
E07000133,107.5,Melton,477226,322729,E12000004,9160,6871,249,1641,775,3382,499,22,Rural,22599,-0.8544,52.80326,percentage_mortgage,30.40400018
E07000134,374.8,North West Leicestershire,440239,317453,E12000004,16599,15690,479,4066,2023,5385,689,43,Rural,44974,-1.42215,52.74251,percentage_mortgage,34.8868235
E07000135,2454.9,Oadby and Wigston,461524,299185,E12000004,9711,7304,160,1116,677,3248,375,25,Suburban,22616,-1.093,52.58875,percentage_mortgage,32.29571984
E07000137,80.5,East Lindsey,535540,374440,E12000004,29907,13738,686,1495,5800,10971,2139,18,Rural,64754,0.020516,53.26446,percentage_mortgage,21.2156778
E07000138,2908.9,Lincoln,496573,370718,E12000004,11092,10374,387,7162,1791,10634,924,142,Urban,42506,-0.55848,53.21921,percentage_mortgage,24.40596622
E07000139,128,North Kesteven,504210,354897,E12000004,20386,16724,536,3685,1428,6299,1865,66,Rural,50989,-0.47664,53.08059,percentage_mortgage,32.79923121
E07000140,126.8,South Holland,532780,324067,E12000004,16604,11717,436,3693,1243,6055,888,67,Rural,40703,-0.03057,52.78759,percentage_mortgage,28.78657593
E07000141,152.1,South Kesteven,499893,329594,E12000004,23765,19155,654,5536,2315,9998,1327,97,Rural,62847,-0.49568,52.84885,percentage_mortgage,30.4787818
E07000143,108.4,Breckland,592273,302678,E12000006,24126,16335,433,1653,6854,9186,1744,27,Rural,60358,0.818717,52.59422,percentage_mortgage,27.06352099
E07000144,238.6,Broadland,623735,316663,E12000006,26448,18088,498,650,4969,5951,1144,12,Rural,57760,1.252273,52.69622,percentage_mortgage,31.31578947
E07000145,572.2,Great Yarmouth,647815,311075,E12000006,16978,10538,133,5464,1749,8504,1072,107,Suburban,44545,1.64951,52.68439,percentage_mortgage,23.65697609
E07000146,107.2,Kings Lynn and West Norfolk,566910,317216,E12000006,28053,17150,323,2167,7013,10482,2222,54,Rural,67464,0.533245,52.71285,percentage_mortgage,25.42096526
E07000148,3688.2,Norwich,622020,308886,E12000006,14312,12793,367,14240,5278,15986,1365,116,Urban,64457,1.284979,52.64013,percentage_mortgage,19.84734009
E07000149,156.4,South Norfolk,622377,295780,E12000006,25720,19175,756,1411,5773,7213,1314,19,Rural,61381,1.373247,52.51217,percentage_mortgage,31.23930858
E07000163,48.4,Craven,388715,464893,E12000003,11826,6837,184,457,2037,3963,755,10,Rural,26069,,,percentage_mortgage,26.22655261
E07000164,69.2,Hambleton,444420,488149,E12000003,17772,10373,355,575,4893,5245,1581,6,Rural,40800,,,percentage_mortgage,25.42401961
E07000165,124.4,Harrogate,426573,463534,E12000003,28936,20971,647,3740,3282,11484,2038,71,Rural,71169,,,percentage_mortgage,29.46648119
E07000166,37.7,Richmondshire,404370,496225,E12000003,8518,4974,119,1450,991,3142,1724,28,Rural,20946,,,percentage_mortgage,23.74677743
E07000167,36.3,Ryedale,475009,480011,E12000003,10820,5686,190,331,2840,3958,883,7,Rural,24715,,,percentage_mortgage,23.0062715
E07000169,153.5,Selby,457071,432688,E12000003,14590,14325,447,2923,1928,4571,739,39,Rural,39562,,,percentage_mortgage,36.20898842
E07000170,1152.8,Ashfield,449768,355201,E12000004,19484,17266,221,6135,1995,8261,1036,111,Suburban,54509,-1.25422,53.09747,percentage_mortgage,31.67550313
E07000171,184.7,Bassetlaw,469431,382275,E12000004,19442,15672,217,6124,1573,7210,1141,79,Rural,51458,-0.9787,53.35604,percentage_mortgage,30.45590579
E07000172,1385,Broxtowe,449657,342283,E12000004,19301,15153,151,4029,1308,7409,946,65,Suburban,48362,-1.25944,52.97208,percentage_mortgage,31.3324511
E07000173,977.4,Gedling,459166,348277,E12000004,20649,17417,270,2084,2911,7136,1055,29,Suburban,51551,-1.11907,53.02434,percentage_mortgage,33.78595954
E07000175,188.8,Newark and Sherwood,472378,359080,E12000004,20525,16268,437,5133,2280,7476,1148,65,Rural,53332,-0.94643,53.1096,percentage_mortgage,30.50326258
E07000176,291,Rushcliffe,464834,334124,E12000004,20508,17253,524,886,3387,6450,862,13,Rural,49883,-1.01097,52.9124,percentage_mortgage,34.58693342
E07000177,273.5,Cherwell,449860,229130,E12000008,21431,21408,1253,1427,7315,11453,1580,26,Rural,65893,-1.28506,51.88718,percentage_mortgage,32.48903525
E07000178,3553,Oxford,452441,206500,E12000008,13993,11042,793,7414,4140,16150,1612,95,Urban,55239,-1.24405,51.75357,percentage_mortgage,19.98950017
E07000179,219.7,South Oxfordshire,464397,193175,E12000008,23180,20015,1116,1092,6294,7921,1863,17,Rural,61498,-1.07847,51.62288,percentage_mortgage,32.54577385
E07000180,240.5,Vale of White Horse,438787,192976,E12000008,20812,18398,1055,1260,6946,7003,1999,24,Rural,57497,-1.48537,51.65444,percentage_mortgage,31.99819121
E07000181,159.9,West Oxfordshire,434067,215553,E12000008,17963,14082,995,788,5575,6580,1990,8,Rural,47981,-1.50292,51.83991,percentage_mortgage,29.34911736
E07000187,157,Mendip,362056,144991,E12000009,20657,13884,605,1149,4902,7770,1307,20,Rural,50294,,,percentage_mortgage,27.60567861
E07000188,222.2,Sedgemoor,333465,143276,E12000009,21144,15677,493,3618,3269,8494,1157,52,Rural,53904,,,percentage_mortgage,29.08318492
E07000189,180,South Somerset,350246,121192,E12000009,31355,20226,840,2166,8567,10552,2182,48,Rural,75936,,,percentage_mortgage,26.63558786
E07000192,1274.3,Cannock Chase,401418,312745,E12000005,14718,14438,297,4894,2137,6109,753,110,Suburban,43456,-1.98277,52.70166,percentage_mortgage,33.2244109
E07000193,320.5,East Staffordshire,412763,329519,E12000005,18695,15583,357,2276,4358,8846,1146,32,Rural,51293,-1.81441,52.83652,percentage_mortgage,30.38036379
E07000194,321.3,Lichfield,413297,310036,E12000005,18902,14528,445,738,5194,4926,891,8,Rural,45632,-1.76059,52.69615,percentage_mortgage,31.83730715
E07000195,584.5,Newcastle-under-Lyme,378749,344081,E12000005,20435,15716,350,2774,6368,6613,1122,45,Suburban,53423,-2.32628,53.00347,percentage_mortgage,29.41804092
E07000196,271.2,South Staffordshire,388140,303026,E12000005,20310,14049,402,625,5846,4126,747,16,Rural,46121,-2.15496,52.69691,percentage_mortgage,30.46117821
E07000197,228.8,Stafford,388230,327866,E12000005,23474,18558,500,2042,6104,7788,1548,33,Rural,60047,-2.16477,52.84791,percentage_mortgage,30.90579046
E07000199,2549.6,Tamworth,421984,303220,E12000005,10967,11070,233,4104,1822,4192,451,56,Urban,32895,-1.68455,52.62028,percentage_mortgage,33.65253078
E07000200,155.5,Babergh,599986,243163,E12000006,17460,11098,289,3370,1963,4910,1049,61,Rural,40200,0.916149,52.0645,percentage_mortgage,27.60696517
E07000203,117.9,Mid Suffolk,611211,265459,E12000006,19151,13607,446,3141,1870,4874,1205,50,Rural,44344,1.096951,52.21856,percentage_mortgage,30.68509832
E07000207,1459.6,Elmbridge,512060,163238,E12000008,18809,20832,586,939,4669,8828,897,27,Suburban,55587,-0.3944,51.36095,percentage_mortgage,37.47638836
E07000208,2375.4,Epsom and Ewell,521188,161461,E12000008,11364,11803,358,193,2550,4561,487,5,Suburban,31321,-0.26172,51.33946,percentage_mortgage,37.68398199
E07000209,530.2,Guildford,500446,150851,E12000008,19267,17717,729,4864,2202,9552,1378,51,Suburban,55760,-0.56257,51.25366,percentage_mortgage,31.77367288
E07000210,338.3,Mole Valley,517049,147214,E12000008,15136,12053,380,574,3753,4506,732,5,Rural,37139,-0.30603,51.22749,percentage_mortgage,32.45375481
E07000211,1168.1,Reigate and Banstead,526286,152009,E12000008,20196,22374,969,1082,5825,8482,905,16,Suburban,59849,-0.19871,51.25846,percentage_mortgage,37.38408328
E07000212,1128.6,Runnymede,501617,167042,E12000008,11431,11710,506,2771,1728,5907,745,40,Suburban,34838,-0.53855,51.39274,percentage_mortgage,33.61272174
E07000213,2293.9,Spelthorne,506652,170605,E12000008,13980,14489,531,771,4525,6783,704,21,Suburban,41804,-0.46254,51.41552,percentage_mortgage,34.65936274
E07000215,354.1,Tandridge,536712,149345,E12000008,13326,13203,412,2496,1443,3973,757,13,Rural,35623,-0.04809,51.23584,percentage_mortgage,37.06313337
E07000216,371.5,Waverley,495682,139877,E12000008,20039,17598,642,4657,1770,6494,1209,39,Rural,52448,-0.62343,51.15686,percentage_mortgage,33.55323368
E07000217,1634.4,Woking,500423,158249,E12000008,13251,14280,338,2965,1827,7966,772,39,Suburban,41438,-0.57981,51.30839,percentage_mortgage,34.46112264
E07000218,228.8,North Warwickshire,425346,294421,E12000005,10558,8856,261,2490,1262,3588,522,44,Rural,27581,-1.6242,52.56486,percentage_mortgage,32.10906059
E07000219,1699.7,Nuneaton and Bedworth,435701,289373,E12000005,19829,18675,461,5412,2745,8355,1044,64,Suburban,56585,-1.47964,52.50094,percentage_mortgage,33.00344614
E07000220,325.7,Rugby,445826,276476,E12000005,15703,16012,692,3399,2675,7460,1014,60,Rural,47015,-1.31828,52.38228,percentage_mortgage,34.05721578
E07000221,137.8,Stratford-on-Avon,425910,253437,E12000005,24156,17967,1060,958,6948,7055,1308,11,Rural,59463,-1.63565,52.16155,percentage_mortgage,30.21542808
E07000222,524.8,Warwick,428512,268090,E12000005,21411,19541,899,5251,3553,10844,1066,53,Suburban,62618,-1.58369,52.30142,percentage_mortgage,31.20668178
E07000223,1534.4,Adur,519857,106296,E12000008,11101,8835,184,2431,1005,3537,558,27,Suburban,27678,-0.32417,50.84572,percentage_mortgage,31.92065901
E07000224,746.1,Arun,500922,105536,E12000008,32182,19588,836,3210,3564,11801,1424,56,Suburban,72661,-0.64999,50.84321,percentage_mortgage,26.95806554
E07000225,157.8,Chichester,488437,116059,E12000008,22715,12657,754,1057,7100,8089,1718,28,Rural,54118,-0.7163,50.94177,percentage_mortgage,23.38778225
E07000226,2634.9,Crawley,527313,137822,E12000008,10940,14423,560,7969,2463,8352,663,132,Urban,45502,-0.19533,51.12357,percentage_mortgage,31.6975078
E07000227,276.8,Horsham,514696,122819,E12000008,24482,20583,1072,775,6380,7795,1260,23,Rural,62370,-0.38126,51.00272,percentage_mortgage,33.001443
E07000228,456.8,Mid Sussex,531427,126224,E12000008,23259,22754,810,460,6352,8568,1142,4,Rural,63349,-0.10275,51.05954,percentage_mortgage,35.91848332
E07000229,3423.7,Worthing,513043,104470,E12000008,18052,15388,322,1051,3794,10012,904,15,Urban,49538,-0.40127,50.8331,percentage_mortgage,31.06302233
E07000234,457.1,Bromsgrove,398961,273791,E12000005,17483,14511,458,1452,2965,3719,660,16,Rural,41264,-2.00376,52.36169,percentage_mortgage,35.16624661
E07000235,137.7,Malvern Hills,376452,253907,E12000005,15753,9020,451,753,4248,3896,757,11,Rural,34889,-2.33092,52.16759,percentage_mortgage,25.85342085
E07000236,1604.4,Redditch,403427,264902,E12000005,11254,12184,291,5281,2050,4718,525,75,Suburban,36378,-1.9471,52.28541,percentage_mortgage,33.49277036
E07000237,3121.4,Worcester,385680,255359,E12000005,14320,13142,472,2155,5114,8593,901,27,Urban,44724,-2.20997,52.19477,percentage_mortgage,29.38467042
E07000238,199.7,Wychavon,396608,251844,E12000005,23188,16997,708,1478,7476,6337,1156,16,Rural,57356,-2.01614,52.12886,percentage_mortgage,29.63421438
E07000239,520,Wyre Forest,381336,275771,E12000005,18477,12681,464,2946,3465,6366,873,48,Suburban,45320,-2.23494,52.3853,percentage_mortgage,27.98102383
E07000240,919.3,St Albans,514441,209482,E12000006,20615,21237,297,4620,2567,8703,899,52,Suburban,58990,-0.3407,51.77356,percentage_mortgage,36.00101712
E07000241,925,Welwyn Hatfield,524698,209206,E12000006,12711,13465,647,8354,3360,6954,632,86,Suburban,46209,-0.18518,51.76087,percentage_mortgage,29.13934515
E07000242,315.7,East Hertfordshire,537205,220364,E12000006,21140,21870,915,1041,7070,8910,1057,20,Rural,62023,0.002739,51.86485,percentage_mortgage,35.26111281
E07000243,3444.8,Stevenage,524559,224521,E12000006,9522,11282,618,7457,2137,4996,474,26,Urban,36512,-0.18987,51.90539,percentage_mortgage,30.89943032
E07000244,195.1,East Suffolk,636456,265500,E12000006,49014,27266,443,5093,9384,16953,2532,64,Rural,110749,1.456187,52.244,percentage_mortgage,24.61963539
E07000245,173.9,West Suffolk,578957,267629,E12000006,26398,20991,942,3962,8773,15003,2626,52,Rural,78747,0.652723,52.3084,percentage_mortgage,26.65625357
E07000246,132.6,Somerset West and Taunton,304672,132836,E12000009,27731,18028,655,5568,5047,11118,1751,88,Rural,69986,,,percentage_mortgage,25.7594376
E08000002,1948.6,Bury,379434,410155,E12000002,27752,26240,292,6718,5326,12628,1621,119,Suburban,80696,-2.3088,53.59309,percentage_mortgage,32.51710122
E08000003,4772.7,Manchester,384645,394923,E12000002,35423,44502,1679,24419,38857,65041,4362,447,Urban,214730,-2.23359,53.47009,percentage_mortgage,20.72463093
E08000004,1700.5,Oldham,396668,406152,E12000002,29384,26845,412,7572,12188,14253,2245,241,Suburban,93140,-2.05274,53.55768,percentage_mortgage,28.82220314
E08000005,1415.6,Rochdale,389646,413331,E12000002,27411,26966,342,9972,8843,14535,1968,185,Suburban,90222,-2.14784,53.60741,percentage_mortgage,29.88849726
E08000006,2777.2,Salford,375503,399266,E12000002,25294,28774,646,13599,15628,28651,2202,323,Urban,115117,-2.38485,53.47927,percentage_mortgage,24.99543942
E08000007,2338.3,Stockport,391577,388561,E12000002,46498,43527,1486,9880,6969,16238,1954,96,Suburban,126648,-2.12465,53.39111,percentage_mortgage,34.36848588
E08000008,2239.7,Tameside,395938,397900,E12000002,30363,30158,320,5556,15569,15489,1970,102,Suburban,99527,-2.077,53.47867,percentage_mortgage,30.30132527
E08000009,2216.7,Trafford,376532,391465,E12000002,33149,33238,654,4065,10354,13254,1490,65,Suburban,96269,-2.36572,53.41672,percentage_mortgage,34.52617146
E08000010,1750,Wigan,361033,403243,E12000002,49212,45766,655,20083,4250,20040,2721,378,Suburban,143105,-2.57242,53.51445,percentage_mortgage,31.98071346
E08000011,1787,Knowsley,344694,392430,E12000002,18902,20384,543,7109,9578,8366,1095,96,Suburban,66073,-2.83297,53.43788,percentage_mortgage,30.85072571
E08000012,4346.1,Liverpool,339133,389144,E12000002,50393,46648,1378,9355,45403,49950,4117,247,Urban,207491,-2.91368,53.40833,percentage_mortgage,22.48193898
E08000013,1343.6,St. Helens,352124,396102,E12000002,28023,24026,627,5030,10963,10785,1479,80,Suburban,81013,-2.70309,53.45862,percentage_mortgage,29.65696863
E08000014,1783.4,Sefton,332846,408176,E12000002,46426,35565,845,4159,13576,20029,2428,45,Suburban,123073,-2.99177,53.48212,percentage_mortgage,28.89748361
E08000015,1989.7,Wirral,327405,386273,E12000002,51333,41781,887,5611,16454,24397,2694,95,Suburban,143252,-3.06703,53.37478,percentage_mortgage,29.16608494
E08000016,743.3,Barnsley,431083,404470,E12000003,35620,31733,522,16772,4522,16296,2273,315,Suburban,108053,-1.54925,53.52577,percentage_mortgage,29.36799534
E08000017,542.4,Doncaster,460041,405684,E12000003,44881,39002,563,18396,4298,22953,2988,399,Suburban,133480,-1.10894,53.52695,percentage_mortgage,29.21935871
E08000018,927.7,Rotherham,447556,390471,E12000003,38318,34178,467,18981,4564,14651,2384,383,Suburban,113926,-1.28651,53.39553,percentage_mortgage,30.00017555
E08000021,2646.1,Newcastle upon Tyne,421988,568195,E12000001,30707,29769,580,24431,9045,25300,2678,287,Urban,122797,-1.65297,55.021,percentage_mortgage,24.24244892
E08000022,2538.6,North Tyneside,430940,570503,E12000001,31038,30233,504,14069,5696,12755,1870,67,Urban,96232,-1.50923,55.02896,percentage_mortgage,31.41678444
E08000023,2294.2,South Tyneside,435717,563346,E12000001,20503,18152,336,15720,4488,7742,1283,64,Suburban,68288,-1.44679,54.96988,percentage_mortgage,26.58153702
E08000024,1994.6,Sunderland,435242,554109,E12000001,38312,32680,484,13760,18794,15827,2269,51,Suburban,122177,-1.43344,54.85719,percentage_mortgage,26.74807861
E08000025,4275.4,Birmingham,408620,287849,E12000005,114970,108046,3641,58609,40890,86669,9050,1580,Urban,423455,-1.88141,52.48404,percentage_mortgage,25.51534402
E08000026,3500.7,Coventry,432736,280037,E12000005,40278,36784,906,7244,15522,30134,3061,211,Urban,134140,-1.51905,52.41423,percentage_mortgage,27.42209632
E08000027,3302.4,Dudley,392753,287253,E12000005,51133,39920,618,21157,4864,16644,2296,437,Urban,137069,-2.10171,52.49513,percentage_mortgage,29.12401783
E08000028,3994.9,Sandwell,399516,290879,E12000005,35924,34080,631,27293,7319,21710,2527,762,Urban,130246,-2.00771,52.51477,percentage_mortgage,26.16587074
E08000029,1212.9,Solihull,418611,279457,E12000005,35054,29584,710,8901,3631,10249,1247,106,Suburban,89482,-1.71558,52.431,percentage_mortgage,33.06139782
E08000030,2733.1,Walsall,402370,300150,E12000005,36296,30293,557,9241,17335,16323,2013,168,Urban,112226,-1.97043,52.60505,percentage_mortgage,26.99285371
E08000031,3797.9,Wolverhampton,391927,299026,E12000005,31345,26465,445,19761,6723,17922,2084,397,Urban,105142,-2.12746,52.59788,percentage_mortgage,25.1707215
E08000032,1491.2,Bradford,409656,438737,E12000003,66875,62698,1043,11798,18933,42709,5569,242,Suburban,209867,-1.87389,53.84382,percentage_mortgage,29.87511138
E08000033,567.8,Calderdale,401827,424977,E12000003,31269,27170,366,3793,9377,16210,2227,64,Suburban,90476,-1.9618,53.72047,percentage_mortgage,30.03006322
E08000034,1060.3,Kirklees,415745,414567,E12000003,62352,54256,676,19678,6610,29858,4084,475,Suburban,177989,-1.78085,53.64233,percentage_mortgage,30.48278264
E08000035,1471.7,Leeds,432624,436701,E12000003,95452,99132,1947,51716,18026,68197,6205,791,Suburban,341466,-1.50736,53.82273,percentage_mortgage,29.03129448
E08000036,1043.6,Wakefield,438985,418409,E12000003,48566,47260,1200,22323,10865,19969,2785,107,Suburban,153075,-1.42091,53.65918,percentage_mortgage,30.8737547
E08000037,1378,Gateshead,420364,560133,E12000001,27161,24448,350,17308,5026,12920,1664,122,Suburban,88999,-1.68696,54.93115,percentage_mortgage,27.46997157
E09000001,2975,City of London,532539,181164,E12000007,2228,1360,24,898,562,4128,618,10,Urban,9828,-0.09351,51.51564,percentage_mortgage,13.83801384
E09000002,6065.8,Barking and Dagenham,548056,184924,E12000007,11130,20189,1274,18077,5196,16443,1447,146,Urban,73902,0.129479,51.54555,percentage_mortgage,27.31861113
E09000003,4488.7,Barnet,524095,192314,E12000007,39083,39324,1633,10030,10004,45180,3525,138,Urban,148917,-0.21819,51.61107,percentage_mortgage,26.40665606
E09000004,4070.7,Bexley,548955,175730,E12000007,31210,34207,1263,2491,11486,13078,1500,65,Urban,95300,0.146212,51.45822,percentage_mortgage,35.89401889
E09000005,7859.6,Brent,520189,185924,E12000007,23933,21660,2246,10444,17432,39732,2994,171,Urban,118612,-0.27568,51.56438,percentage_mortgage,18.26122146
E09000006,2197.7,Bromley,542864,165667,E12000007,44794,48234,1166,2090,15836,21418,2243,47,Suburban,135828,0.039246,51.37266,percentage_mortgage,35.51108755
E09000007,9640.9,Camden,527931,184580,E12000007,14780,12727,715,21051,10199,30382,2630,274,Urban,92758,-0.16291,51.54305,percentage_mortgage,13.72064943
E09000008,4516,Croydon,533300,163557,E12000007,36992,46675,2183,14769,12602,36484,2957,283,Urban,152945,-0.07761,51.36598,percentage_mortgage,30.51750629
E09000009,6611.6,Ealing,515931,181701,E12000007,30275,31539,2658,11326,12056,42063,3427,313,Urban,133657,-0.3141,51.52442,percentage_mortgage,23.59696836
E09000010,4082.5,Enfield,532411,196432,E12000007,31740,31607,1319,12530,8043,32773,2615,296,Urban,120923,-0.08144,51.64889,percentage_mortgage,26.13812095
E09000011,6108.6,Greenwich,542847,177046,E12000007,18473,28454,2471,21257,14070,26863,2225,238,Urban,114051,0.050093,51.46394,percentage_mortgage,24.94848796
E09000013,11161.1,Hammersmith and Fulham,523529,178905,E12000007,12483,13607,1208,11840,12391,27284,2274,157,Urban,81244,-0.21735,51.48733,percentage_mortgage,16.74831372
E09000014,8930.2,Haringey,531225,189614,E12000007,18141,20975,1732,15630,10844,35052,2324,393,Urban,105091,-0.1067,51.58771,percentage_mortgage,19.95889277
E09000015,5175.4,Harrow,514912,190121,E12000007,26947,25743,1007,4977,4321,24354,2141,152,Urban,89642,-0.33598,51.59467,percentage_mortgage,28.71756543
E09000016,2332.3,Havering,554032,187245,E12000007,34918,35461,976,9423,4384,14452,1567,95,Suburban,101276,0.235368,51.56519,percentage_mortgage,35.01421857
E09000017,2644,Hillingdon,507905,183585,E12000007,28994,32837,1373,10179,7434,25692,2584,135,Urban,109228,-0.44179,51.53664,percentage_mortgage,30.06280441
E09000018,5148,Hounslow,513589,175668,E12000007,21761,25283,2225,13251,8367,29537,2251,286,Urban,102961,-0.37855,51.46238,percentage_mortgage,24.55589981
E09000019,14574.9,Islington,531145,185005,E12000007,11151,14589,1580,24081,14706,28084,1995,310,Urban,96496,-0.10989,51.54546,percentage_mortgage,15.1187614
E09000020,11816.5,Kensington and Chelsea,525606,179504,E12000007,13301,7890,676,7154,11276,23560,2900,127,Urban,66884,-0.18978,51.49645,percentage_mortgage,11.79654327
E09000021,4512.1,Kingston upon Thames,519327,166705,E12000007,18519,21418,460,4647,2597,16535,1376,76,Urban,65628,-0.28367,51.39296,percentage_mortgage,32.63546047
E09000022,11839.1,Lambeth,530807,174499,E12000007,16180,28289,2441,24126,21117,39228,3101,206,Urban,134688,-0.11385,51.46445,percentage_mortgage,21.0033559
E09000023,8551.5,Lewisham,537676,174051,E12000007,18853,32377,1944,16045,19708,30797,2492,177,Urban,122393,-0.01734,51.4423,percentage_mortgage,26.45331024
E09000024,5721.6,Merton,525579,169458,E12000007,20695,24773,869,2342,9257,21998,1750,42,Urban,81726,-0.18868,51.41058,percentage_mortgage,30.31226293
E09000025,9690.1,Newham,541466,182855,E12000007,14695,20884,2739,17989,14401,41391,3088,324,Urban,115511,0.027261,51.53149,percentage_mortgage,18.07966341
E09000026,5501.9,Redbridge,543919,189405,E12000007,27956,31265,983,6604,5103,29079,2497,227,Urban,103714,0.070085,51.58588,percentage_mortgage,30.14539985
E09000027,3401.9,Richmond upon Thames,517367,172867,E12000007,24535,25826,560,1829,7923,18393,1577,61,Urban,80704,-0.28914,51.44035,percentage_mortgage,32.00089215
E09000028,10659,Southwark,533829,176738,E12000007,13879,23870,3182,35433,16558,34493,3013,392,Urban,130820,-0.07308,51.46594,percentage_mortgage,18.2464455
E09000029,4781,Sutton,526964,164120,E12000007,23400,29647,889,5399,6268,15372,1311,61,Urban,82347,-0.17226,51.35755,percentage_mortgage,36.0025259
E09000030,15702.9,Tower Hamlets,536495,181509,E12000007,9424,18459,3143,16697,26540,43126,2874,276,Urban,120539,-0.03647,51.51554,percentage_mortgage,15.31371589
E09000031,7173.3,Waltham Forest,537726,190195,E12000007,20817,29539,1700,10737,11362,26361,2232,153,Urban,102901,-0.0188,51.59461,percentage_mortgage,28.7062322
E09000032,9560,Wandsworth,526055,174145,E12000007,24410,33915,2509,16653,9891,46295,3535,184,Urban,137392,-0.20021,51.4524,percentage_mortgage,24.68484337
E09000033,9514.2,Westminster,527739,181005,E12000007,15213,10749,695,12418,14392,36871,4194,284,Urban,94816,-0.15295,51.51221,percentage_mortgage,11.33669423
W06000001,96.7,Isle of Anglesey,241795,379205,W92000004,13756,7264,87,3783,1037,3735,1064,98,Rural,30824,-4.32298,53.27931,percentage_mortgage,23.56605243
W06000002,46.3,Gwynedd,263903,334963,W92000004,22214,11214,150,3524,5033,7060,1805,105,Rural,51105,-3.77715,52.89883,percentage_mortgage,21.94305841
W06000003,101.9,Conwy,283987,361802,W92000004,22759,12967,291,2051,4206,8526,1394,41,Rural,52235,-3.74646,53.14739,percentage_mortgage,24.82435149
W06000004,114.5,Denbighshire,309404,355776,W92000004,16828,11112,234,3298,2350,7295,1197,73,Rural,42387,-3.34761,53.08833,percentage_mortgage,26.21558497
W06000005,352.3,Flintshire,322419,369649,W92000004,25945,22074,307,6985,2729,7544,1295,32,Rural,66911,-3.18248,53.21471,percentage_mortgage,32.99009132
W06000006,268.2,Wrexham,331795,344142,W92000004,19947,16271,182,9958,2203,7890,1276,188,Rural,57915,-2.99203,53.00167,percentage_mortgage,28.09462143
W06000008,40,Ceredigion,258574,263991,W92000004,14798,6378,96,752,2487,5294,1077,9,Rural,30891,-3.94993,52.29795,percentage_mortgage,20.64679033
W06000009,76.2,Pembrokeshire,201312,221152,W92000004,24647,12556,141,5691,3303,7277,1837,35,Rural,55487,-4.90818,51.85513,percentage_mortgage,22.62872385
W06000010,79.3,Carmarthenshire,251227,224511,W92000004,35629,21936,209,8540,3158,10048,2123,116,Rural,81759,-4.21109,51.89495,percentage_mortgage,26.83007375
W06000011,631.5,Swansea,257445,195641,W92000004,37162,28224,315,12257,7788,16417,2484,315,Suburban,104962,-3.96723,51.65806,percentage_mortgage,26.88973152
W06000012,322.5,Neath Port Talbot,279564,199348,W92000004,23850,17661,99,4657,7342,7014,1638,116,Rural,62377,-3.74638,51.6445,percentage_mortgage,28.31332061
W06000013,580.1,Bridgend,289150,185340,W92000004,23670,20291,136,2087,6587,8128,1398,63,Suburban,62360,-3.61375,51.5606,percentage_mortgage,32.53848621
W06000014,398.4,Vale of Glamorgan,302809,172697,W92000004,22052,19231,135,3660,3363,7474,1503,31,Rural,57449,-3.39801,51.44836,percentage_mortgage,33.47490818
W06000015,2571.3,Cardiff,316778,179542,W92000004,42072,43355,439,12883,12395,32757,3028,404,Urban,147333,-3.22209,51.50254,percentage_mortgage,29.42653716
W06000016,560.3,Rhondda Cynon Taf,300745,195665,W92000004,39686,30943,173,5744,8431,15671,2567,124,Suburban,103339,-3.41359,51.62185,percentage_mortgage,29.94319666
W06000018,634.2,Caerphilly,316753,195610,W92000004,27449,24053,228,10065,4258,8598,1556,48,Suburban,76255,-3.19753,51.65001,percentage_mortgage,31.54284965
W06000019,615.1,Blaenau Gwent,317699,208201,W92000004,10564,7658,36,2776,4418,4160,687,41,Suburban,30340,-3.18592,51.75364,percentage_mortgage,25.24060646
W06000020,734.4,Torfaen,327301,200555,W92000004,13952,11963,223,3324,6251,3701,794,33,Suburban,40241,-3.05101,51.69836,percentage_mortgage,29.72838647
W06000021,109.5,Monmouthshire,340238,206911,W92000004,17738,11691,147,1493,4250,4674,908,21,Rural,40922,-2.9028,51.77827,percentage_mortgage,28.5689849
W06000022,838.1,Newport,333448,186541,W92000004,20172,21387,474,5648,7216,9663,1356,138,Suburban,66054,-2.89769,51.58231,percentage_mortgage,32.37805432
W06000023,25.7,Powys,303993,270454,W92000004,28098,12586,151,5294,3187,8592,2168,106,Rural,60182,-3.43531,52.34863,percentage_mortgage,20.91322987
W06000024,528.2,Merthyr Tydfil,306153,205467,W92000004,9101,7012,33,2168,3458,3325,642,44,Suburban,25783,-3.36425,51.7484,percentage_mortgage,27.19621456
E06000007,1168,Warrington,362665,389223,E12000002,31939,30246,686,4982,8860,12193,1580,52,Suburban,90538,-2.56167,53.39164,percentage_mortgage,33.40696724
E06000008,1129.4,Blackburn with Darwen,369254,421850,E12000002,19573,15958,308,2718,8313,10290,1560,47,Suburban,58767,-2.46361,53.7008,percentage_mortgage,27.15469566
E06000009,4041.1,Blackpool,331921,436188,E12000002,20348,16886,213,3947,2753,18843,1726,67,Urban,64783,-3.02199,53.82164,percentage_mortgage,26.06548014
E06000010,3730.1,Kingston upon Hull,509765,430588,E12000003,26695,29046,585,21768,9399,25419,2174,389,Urban,115475,-0.30385,53.76921,percentage_mortgage,25.15349643
E06000013,200.4,North Lincolnshire,493268,411782,E12000003,27829,21567,204,5035,5918,10929,1626,64,Rural,73172,-0.52407,53.58643,percentage_mortgage,29.47438911
E06000016,5027.2,Leicester,459135,304861,E12000004,31324,28106,662,18748,10747,34549,2888,365,Urban,127389,-1.1304,52.63592,percentage_mortgage,22.06312947
E06000022,559.2,Bath and North East Somerset,367057,162001,E12000009,28855,22878,790,3064,8299,13758,1551,55,Suburban,79250,-2.48657,51.35604,percentage_mortgage,28.8681388
E06000025,584.3,South Gloucestershire,367431,183263,E12000009,43220,42272,1231,2122,10616,16441,2147,52,Suburban,118101,-2.46926,51.54672,percentage_mortgage,35.79309235
E06000030,1014.4,Swindon,417817,185857,E12000009,27968,33075,1203,9786,5158,16798,1722,151,Suburban,95861,-1.73369,51.57764,percentage_mortgage,34.50308259
E06000033,4335.6,Southend-on-Sea,589363,185610,E12000006,24722,23301,503,4822,4197,19085,1674,40,Urban,78344,0.706923,51.54917,percentage_mortgage,29.74190748
E06000034,1074.2,Thurrock,564863,181237,E12000006,16912,25108,445,9639,2094,11015,1116,48,Suburban,66377,0.334874,51.50996,percentage_mortgage,37.82635551
E06000046,370,Isle of Wight,449779,86461,E12000008,28737,15083,509,678,6379,11731,1649,9,Rural,64775,-1.33366,50.67129,percentage_mortgage,23.28521806
E06000049,341.9,Cheshire East,376729,364874,E12000002,69191,56455,1772,4659,15584,23868,3246,79,Rural,174854,-2.29299,53.16793,percentage_mortgage,32.28693653
E06000052,160.9,Cornwall,199168,59975,E12000009,104659,61299,2949,13023,19016,41545,7826,216,Rural,250533,-4.64254,50.45022,percentage_mortgage,24.46743543
E07000011,199.6,Huntingdonshire,521228,276573,E12000006,27621,25402,1051,1819,8067,11117,1780,23,Rural,76880,-0.2247,52.35314,percentage_mortgage,33.04110302
E07000039,317.1,South Derbyshire,429750,326002,E12000004,16388,17321,368,2780,1686,5836,812,48,Rural,45239,-1.5348,52.8249,percentage_mortgage,38.28776056
E07000040,185.2,East Devon,313793,96775,E12000009,31228,16967,947,4030,2868,8960,1737,51,Rural,66788,-3.22364,50.75761,percentage_mortgage,25.40426424
E07000044,100,South Hams,270440,54205,E12000009,17708,10008,628,728,3925,5258,1068,14,Rural,39337,-3.81996,50.37196,percentage_mortgage,25.44169611
E07000064,182.8,Rother,578409,119997,E12000008,20395,10210,372,645,3648,5862,965,5,Rural,42102,0.542937,50.94871,percentage_mortgage,24.25062942
E07000065,192.2,Wealden,554434,120966,E12000008,30510,22033,794,2887,2814,7658,1545,25,Rural,68266,0.205156,50.93323,percentage_mortgage,32.27521753
E07000066,1705.1,Basildon,570901,190821,E12000006,23029,25268,876,10563,5650,9762,1114,101,Suburban,76363,0.475056,51.59037,percentage_mortgage,33.08932336
E07000073,3056.1,Harlow,545614,209915,E12000006,8723,11622,499,9051,2046,5298,526,91,Urban,37856,0.103888,51.76614,percentage_mortgage,30.70054945
E07000078,2549.3,Cheltenham,395079,221973,E12000009,18362,15273,397,4069,2363,11406,972,57,Urban,52899,-2.07515,51.89861,percentage_mortgage,28.87200136
E07000081,3266.6,Gloucester,383531,216834,E12000009,17510,17869,630,2797,4740,10691,1112,57,Urban,55406,-2.23263,51.84641,percentage_mortgage,32.25101975
E07000083,229,Tewkesbury,394038,227458,E12000009,15984,12975,918,865,4333,4763,1078,15,Rural,40931,-2.19997,51.93487,percentage_mortgage,31.69968972
E07000090,2228.4,Havant,471226,104842,E12000008,20869,15526,469,5040,4949,5760,895,81,Suburban,53589,-1.00398,50.87231,percentage_mortgage,28.97236373
E07000103,4772.2,Watford,510556,197803,E12000006,9577,12268,419,1531,4641,10505,672,16,Urban,39629,-0.40429,51.6717,percentage_mortgage,30.95712736
E07000112,307.5,Folkestone and Hythe,610024,132599,E12000008,18966,12841,365,3153,2098,9555,1315,44,Rural,48337,1.000796,51.07215,percentage_mortgage,26.56557089
E07000119,491.2,Fylde,339324,432384,E12000002,16369,10575,288,404,2730,6239,991,10,Rural,37606,-2.91914,53.79709,percentage_mortgage,28.12051268
E07000120,1126.6,Hyndburn,374414,429238,E12000002,11917,10027,80,1222,3489,7088,947,20,Suburban,34790,-2.38964,53.75644,percentage_mortgage,28.82150043
E07000124,105.6,Ribble Valley,370849,445761,E12000002,11654,8533,405,292,1859,3273,730,1,Rural,26747,-2.41737,53.92451,percentage_mortgage,31.90264329
E07000136,193.7,Boston,532926,343714,E12000004,9967,7338,376,1969,3757,5425,540,32,Rural,29404,-0.11218,52.97797,percentage_mortgage,24.95578833
E07000142,82.3,West Lindsey,501339,389522,E12000004,17553,12206,391,1190,3415,6431,1139,20,Rural,42345,-0.50774,53.40044,percentage_mortgage,28.82512693
E07000147,106.6,North Norfolk,613546,332832,E12000006,23509,9701,333,998,5277,7170,1368,18,Rural,48374,1.132099,52.83389,percentage_mortgage,20.05416133
E07000174,1440.2,Mansfield,455327,364075,E12000004,16668,14088,214,5738,2127,8156,909,131,Suburban,48031,-1.17804,53.16703,percentage_mortgage,29.33105703
E07000198,166.4,Staffordshire Moorlands,401331,353540,E12000005,20401,12740,164,1069,2584,4501,872,24,Rural,42355,-1.99334,53.06928,percentage_mortgage,30.07909338
E07000202,3534.3,Ipswich,616698,244356,E12000006,16810,16182,353,7614,4754,12583,1081,130,Urban,59507,1.166175,52.05592,percentage_mortgage,27.19343943
E07000214,951.2,Surrey Heath,492648,161313,E12000008,13156,13495,364,477,2972,4611,920,13,Suburban,36008,-0.68983,51.33612,percentage_mortgage,37.47778271
E08000001,2117,Bolton,369187,409211,E12000002,39475,33608,493,12540,11015,18776,2596,287,Suburban,118790,-2.47952,53.5845,percentage_mortgage,28.29194377
E08000019,1512.5,Sheffield,430011,389797,E12000003,71903,63274,776,36110,16224,38976,4448,237,Suburban,231948,-1.54254,53.40358,percentage_mortgage,27.27939021
E09000012,13593.3,Hackney,534348,185478,E12000007,10263,15803,2664,21943,21002,31943,2204,259,Urban,106081,-0.06045,51.55492,percentage_mortgage,14.89710693
